Comarca,Municipi,Codi municipi,Refugi climàtic,Latitud,Longitud,Tipologia,Nom,Adreça,Telèfon,Correu,Horari,Gratuïtat,Accessibilitat,Aigua,Lavabo,Mobiliari per seure,Capacitat,Georeferència
Segrià,Alcanó,250100,Sí,41.48047396,0.61737839,Altres,Casa de la Vila,"C. Major, 13",973136500,ajuntament@alcano.cat,Indefinit,Sí,Sí,Sí,Sí,Sí,,POINT (0.61737839 41.48047396)
Baix Penedès,Llorenç del Penedès,430748,No,,,NA,NA,NA,NA,NA,NA,NA,NA,NA,NA,NA,,
Bages,Monistrol de Montserrat,081271,No,,,NA,NA,NA,NA,NA,NA,NA,NA,NA,NA,NA,,
Alt Empordà,Peralada,171328,Sí,42.3119038,3.01379,Piscina,Piscina municipal de Peralada,C. Aragó,NA,NA,11:00 - 20:00,No,Sí,No,Sí,Sí,200,POINT (3.01379 42.3119038)
Alt Penedès,Olèrdola,081458,No,,,NA,NA,NA,NA,NA,NA,NA,NA,NA,NA,NA,,
Solsonès,Pinell de Solsonès,251667,No,,,NA,NA,NA,NA,NA,NA,NA,NA,NA,NA,NA,,
Garrotxa,"Preses, les",171390,No,,,NA,NA,NA,NA,NA,NA,NA,NA,NA,NA,NA,,
Ribera d'Ebre,Rasquera,431212,No,,,NA,NA,NA,NA,NA,NA,NA,NA,NA,NA,NA,,
Garrotxa,Sant Feliu de Pallerols,171616,No,,,NA,NA,NA,NA,NA,NA,NA,NA,NA,NA,NA,,
Bages,Rajadell,081786,Sí,41.72758033,1.70593518,Espai cultural,La Sala,"C. Major, 14 08256 Rajadell",938368026,rajadell@rajadell.cat,Indefinit,Sí,Sí,No,Sí,Sí,150,POINT (1.70593518 41.72758033)
Alt Empordà,"Saus, Camallera i Llampaies",171870,No,,,NA,NA,NA,NA,NA,NA,NA,NA,NA,NA,NA,,
Garrigues,"Soleràs, el",252069,No,,,NA,NA,NA,NA,NA,NA,NA,NA,NA,NA,NA,,
Pla de l'Estany,Vilademuls,172180,No,,,NA,NA,NA,NA,NA,NA,NA,NA,NA,NA,NA,,
Barcelonès,Barcelona,080193,Sí,41.40260093,2.18805029,Biblioteca,Biblioteca El Clot - Josep Benet,"Pl. de les Glòries Catalanes, 37-38",NA,b.barcelona.jb@diba.cat,"Juliol i Setembre: dt., dc. i dv. 09:30 - 13:30 i 15:30 - 20:00 | dl i dj. 15:30 - 20:00 || Agost: Tancat",Sí,Sí,No,Sí,Sí,,POINT (2.18805029 41.40260093)
Baix Penedès,Banyeres del Penedès,430206,Sí,41.2618118,1.46153282,Altres,Local social Esplai,"Av. de l'esplai, 50",NA,NA,10:00 - 22:00,Sí,Sí,Sí,Sí,Sí,50,POINT (1.46153282 41.2618118)
Barcelonès,Barcelona,080193,Sí,41.39898264,2.20143849,Altres,CUESB,"Llacuna, 25",NA,NA,Indefinit,Sí,Sí,Sí,Sí,Sí,,POINT (2.20143849 41.39898264)
Barcelonès,Barcelona,080193,Sí,41.40479488,2.17247136,Parc densament arbrat,Parc de la Sagrada Família,"Pl. Sagrada Família, 1",NA,NA,Indefinit,Sí,Sí,NA,Sí,Sí,,POINT (2.17247136 41.40479488)
Barcelonès,Barcelona,080193,Sí,41.3723405,2.1385867,Parc densament arbrat,Plaça de la Farga,"Pl. Farga, 1",NA,NA,Indefinit,Sí,Sí,Sí,No,NA,,POINT (2.1385867 41.3723405)
Baix Ebre,Roquetes,431331,Sí,40.82304103,0.50108599,Altres,Plaça Raval Nova,Pl. Raval Nova,NA,NA,Infedinit,Sí,Sí,Sí,No,Sí,,POINT (0.50108599 40.82304103)
Alt Camp,Valls,431613,Sí,41.28675851,1.2527454,Parc densament arbrat,Plaça del Quarter,Pl. del Quarter,NA,NA,Indefinit,Sí,Sí,Sí,No,Sí,,POINT (1.2527454 41.28675851)
Gironès,Girona,170792,Sí,41.98498253,2.82300466,Altres,Abacus Cooperativa,"Rda. Sant Antoni Maria Claret, 39-41, 17002 Girona",972965030,gironacentre@abacus.coop,dl. a dv. 09:30 - 21:00 | ds. 10:00 - 21:00,Sí,Sí,No,Sí,Sí,6,POINT (2.82300466 41.98498253)
Segrià,Rosselló,251898,Sí,41.69609024,0.59594716,Biblioteca,Biblioteca de Rosselló,"Av. Catalunya, 2",973730001,biblioteca@rossello.cat,dl. a dv. 17:00 - 21:00,Sí,Sí,Sí,Sí,Sí,25,POINT (0.59594716 41.69609024)
Barcelonès,Barcelona,080193,Sí,41.44590735,2.18557896,Centre educatiu,Escola Mercè Rodoreda,"C. del Vesuvi, 35",NA,a8039471@xtec.cat,Juliol: dl. a dv. 17:30 - 20:30 | ds. 11:00 - 14:00 | dg. 11:00 - 14:00 || Agost: dl. a dv. 17:30 - 20:30 | ds. 17:30 - 20:30 | dg. 17:30 - 20:30 || Setembre: Tancat,Sí,NA,Sí,NA,NA,,POINT (2.18557896 41.44590735)
Maresme,Canet de Mar,080403,Sí,41.58750669,2.58477282,Altres,Zones d'ombra passeig marítim,"Pg. Marítim de Canet de Mar, s/n",NA,NA,Indefinit,Sí,Sí,Sí,Sí,Sí,20,POINT (2.58477282 41.58750669)
Baix Camp,Reus,431233,Sí,41.15055967,1.11862606,Equipament cívic,Centre cívic Mas Abelló,"C. Mas del Carpa, 4, 43204 Reus, Tarragona",977010030,cc.masabello@reus.cat,dl. a dv. 08:00 - 22:00,Sí,Sí,Sí,Sí,Sí,,POINT (1.11862606 41.15055967)
Maresme,Mataró,081213,Sí,41.53365018,2.44498965,Equipament cívic,Centre cívic Cabot i Barba,"Pl. Miquel Biada, 5",937022800,NA,09:00 - 15:00,Sí,Sí,No,Sí,Sí,,POINT (2.44498965 41.53365018)
Gironès,Salt,17190,Sí,41.9759048,2.7885998,Equipament cívic,Casal Cívic i Comunitari Salt - les Bernardes,"Pl. de la Diputació, 2",972232663,cc.salt@gencat.cat,dl. a dv. 09:00 - 21:00 | ds. 10:00 - 21:00,Sí,Sí,Sí,Sí,Sí,180,POINT (2.7885998 41.9759048)
Vallès Occidental,Sabadell,081878,Sí,41.54961554,2.12888061,Biblioteca,Biblioteca de la Serra,"Pl. de Cristóbal Ramos, 1",937263468,NA,09:00 - 14:00,Sí,Sí,No,No,Sí,,POINT (2.12888061 41.54961554)
Barcelonès,Barcelona,080193,Sí,41.40850157,2.21338281,Parc densament arbrat,Parc de Diagonal Mar,"C. de Llull, 356 - 360",NA,NA,dl. a dv. 10:00 - 22:30 | ds. 10:00 - 22:30 | dg. 10:00 - 22:30,Sí,Sí,Sí,No,NA,,POINT (2.21338281 41.40850157)
Garrotxa,Olot,171143,Sí,42.18135414,2.48950113,Espai cultural,Claustre de l'Hospici,"C. de l'Hospici, 8",NA,NA,Fins al 15/08: dl. 08:00 - 15:00 | dl. a dv. 08:00 - 20:00 | ds. i dg. 11:00 - 14:00 i 17:00 - 20:00 || Fins al 01/09: dl. 08:00 - 15:00 | dt. a dv. 08:00 - 18:00 | ds. i dg. 11:00 - 14:00,Sí,Sí,Sí,Sí,Sí,,POINT (2.48950113 42.18135414)
Barcelonès,Barcelona,080193,Sí,41.451447,2.1931049,Piscina,Piscines del Centre Esportiu Municipal Trinitat Vella,"Via Bàrcino, 84-86",933113701,NA,Juliol i Agost: dl. a dv. 10:00 - 19:30 | ds. 10:00 - 19:30 | dg. 10:00 - 19:30 || Setembre: Indefinit,No,Sí,NA,NA,NA,,POINT (2.1931049 41.451447)
Vallès Occidental,Sant Quirze del Vallès,082384,Sí,41.53373289,2.07998521,Equipament cívic,Casal d'avis,"C. Pintor Vila Puig, 22",937216800,oac@santquiurzevalles.cat,Indefinit,Sí,Sí,Sí,Sí,Sí,50,POINT (2.07998521 41.53373289)
Vallès Occidental,Matadepera,081206,Sí,41.59741942,2.02643738,Equipament cívic,Casal de la Gent Gran,"Ctra Terrassa, 35",NA,NA,08:00 - 19:00,Sí,Sí,Sí,Sí,Sí,,POINT (2.02643738 41.59741942)
Barcelonès,"Hospitalet de Llobregat, l'",08907,Sí,41.3511437,2.1084879,Equipament cívic,Casal Cívic i Comunitari l'Hospitalet de Llobregat  - Bellvitge,"Av. d'Amèrica, 61-67",932630160,cc.hospitaletbellvitge@gencat.cat,dl. a dv. 09:00 - 21:00 | ds. 10:00 - 21:00,Sí,Sí,Sí,Sí,Sí,150,POINT (2.1084879 41.3511437)
Baix Empordà,"Tallada d'Empordà, la",171959,Sí,42.08287526,3.05850142,Sala polivalent,Local social Empordanet,"C. Figueres, s/n",NA,NA,Indefinit,Sí,Sí,Sí,Sí,Sí,,POINT (3.05850142 42.08287526)
Barcelonès,Barcelona,080193,Sí,41.42353944,2.18775719,Altres,Parròquia del Crist Rei,"C. Martí Molins, 45",NA,NA,dl. a dv. 10:00 - 13:00 i 18:00 - 20:30 | ds. 10:00 - 13:00 i 18:00 - 20:30 | dg. 10:00 - 13:00,Sí,Sí,No,No,Sí,,POINT (2.18775719 41.42353944)
Cerdanya,Guils de Cerdanya,170828,No,,,NA,NA,NA,NA,NA,NA,NA,NA,NA,NA,NA,,
Barcelonès,Barcelona,080193,Sí,41.42669639,2.17685337,Poliesportiu,CEM Cotxeres Borbó,"Pl. de Carmen Laforet, 7",NA,rac@cotxeresborbo.duinclub.com,NA | ds. 08:00 - 20:00 | dg. 09:00 - 14:00,Sí,Sí,Sí,Sí,Sí,,POINT (2.17685337 41.42669639)
Barcelonès,Barcelona,080193,Sí,41.38742762,2.18169453,Equipament cívic,Centre cívic Convent Sant Agustí,"C. del Comerç, 36",NA,informacio@conventagusti.com,Juliol i Setembre: dl. a dv. 09:00 - 22:00 | ds. 10:00 - 14:00 i 16:00 - 21:00 || Agost: Tancat,Sí,Sí,No,Sí,Sí,,POINT (2.18169453 41.38742762)
Osona,Sora,082726,No,,,NA,NA,NA,NA,NA,NA,NA,NA,NA,NA,NA,,
Urgell,Tàrrega,252173,Sí,41.64522881,1.13855316,Biblioteca,Biblioteca pública Germanes Güell,"Pl. Sant Antoni, 3",973500428,enovell@tarrega.cat,09:00 - 14:00 i 16:00 - 20:00,Sí,Sí,Sí,Sí,Sí,0,POINT (1.13855316 41.64522881)
Vallès Oriental,Canovelles,8420,Sí,41.6167578,2.274642,Equipament cívic,Casal Cívic i Comunitari Canovelles - veïnat Pau Casals,"Pl. de Pau Casals, s/n",938463928,cc.canovellesveinatpaucasals@gencat.cat,dl. a dv. 09:00 - 22:00:00,Sí,Sí,Sí,Sí,Sí,14,POINT (2.274642 41.6167578)
Alt Empordà,Palau-saverdera,171208,Sí,42.3084179,3.14871642,Equipament cívic,Centre cívic,"C. Tramuntana, 1",972530903,ajuntament@palau-saverdera.cat,Indefinit,Sí,Sí,No,Sí,Sí,100,POINT (3.14871642 42.3084179)
Maresme,"Masnou, el",081189,Sí,41.47807183,2.30445872,Altres,Casa del Marquès,"Pg. del Bellresguard, 12",NA,NA,dl. a dj. 08:00 -  20:00 | dv. 08:00 - 15:30,Sí,Sí,Sí,Sí,Sí,,POINT (2.30445872 41.47807183)
Baix Ebre,Camarles,439039,Sí,40.77431618,0.66944925,Piscina,Pisicina municipal Camarles,Camí de la Gravera,977470007,ajuntament@camarles.cat,09:00 - 20:00,Sí,Sí,Sí,Sí,Sí,,POINT (0.66944925 40.77431618)
Baix Llobregat,"Prat de Llobregat, el",081691,Sí,41.32818899,2.09064599,Parc densament arbrat,Parc Fondo d'en Peixo,Parc Fondo d'en Peixo,NA,NA,Indefinit,Sí,Sí,Sí,No,Sí,,POINT (2.09064599 41.32818899)
Barcelonès,Barcelona,080193,Sí,41.40595538,2.13599293,Biblioteca,Biblioteca Sant Gervasi - Joan Maragall,"Sant Gervasi de Cassoles, 85",NA,b.barcelona.jmg@diba.cat,"dl., dc. i dv. 09:30 - 13:30 i 15:30 - 20:30 | dt. i dj. 09:30 - 20:30 | Sala d'estudi: dl. a dj. 20:30 - 00:00 | ds. 10:00 - 14:00",Sí,Sí,No,Sí,Sí,,POINT (2.13599293 41.40595538)
Baix Ebre,"Aldea, l'",439044,Sí,40.74448844,0.62138851,Piscina,Piscines municipals de L'Aldea,"Av. Francesc Robert Graupera, s/n",NA,NA,17:00 - 20:00,No,Sí,No,Sí,Sí,100,POINT (0.62138851 40.74448844)
Baix Camp,Vandellòs i l'Hospitalet de l'Infant,431628,Sí,41.01841344,0.83184656,Piscina,Piscina Vandellòs,C. de les Flors,977824037,info@vandellos-hospitalet.cat,12:00 - 20:00,Sí,Sí,Sí,Sí,Sí,500,POINT (0.83184656 41.01841344)
Garrotxa,Olot,171143,Sí,42.18297924,2.4702314,Parc densament arbrat,Parc del Xiprer,"Rda. del xiprer, 1",NA,NA,Indefinit,Sí,No,Sí,No,Sí,,POINT (2.4702314 42.18297924)
Barcelonès,Barcelona,080193,Sí,41.40854187,2.19170324,Equipament cívic,Casal de gent gran Parc del Clot,"Pl. Joan Casanelles, 1",NA,casalgg.parcdelclot@bcn.cat,Juliol i Setembre: dl. a dv. 09:30 - 13:30 i 16:00 - 20:00 || Agost: Tancat,Sí,Sí,No,Sí,Sí,,POINT (2.19170324 41.40854187)
Baix Llobregat,Vallirana,082956,Sí,41.38811122,1.93203515,Altres,Ajuntament de Vallirana,"C. Major 329, Vallirana, Barcelona",936830810,NA,dl. a dv. 08:30 - 14:30,Sí,Sí,Sí,Sí,Sí,5,POINT (1.93203515 41.38811122)
Segrià,Lleida,251207,Sí,41.62003237,0.62842066,Biblioteca,Biblioteca-Fonoteca de l'Auditori,"Pl.  Josep Prenafeta, s/n",973700639,NA,dl. a dj. 10:00 - 13:30 || Agost tancat,Sí,Sí,No,Sí,Sí,40,POINT (0.62842066 41.62003237)
Bages,Sant Feliu Sasserra,082129,Sí,41.94430608,2.0154441,Piscina,Piscines municipals Sant Feliu Sasserra,Zona esportiva Sant Roc,938819011,st.felius@diba.cat,10:30 - 19:30,No,Sí,Sí,Sí,Sí,,POINT (2.0154441 41.94430608)
Vallès Occidental,Castellar del Vallès,080517,Sí,41.6163319,2.08767706,Altres,Mercat municipal,"Pl. mercat, s/n",937474225,mercat@castellarvalles.cat,09:00 - 21:00,Sí,Sí,No,Sí,Sí,40,POINT (2.08767706 41.6163319)
Baix Camp,Reus,431233,Sí,41.15403914,1.10014809,Biblioteca,Biblioteca Central Xavier Amorós,"C. de l'Escorxador, 1, 43202 Reus, Tarragona",977010025,info.biblioteques@reus.cat,dl. a dj. 10:00 - 14:00 i 17:00 - 20:00 | dv. 10:00 - 14:00,Sí,Sí,Sí,Sí,Sí,,POINT (1.10014809 41.15403914)
Noguera,Balaguer,250404,Sí,41.79399795,0.80909597,Espai cultural,Claustre Convent Sant Domènec,"C. d'Urgell, 1",973445194,NA,dl. a ds. 10:00 - 19:00 | dg. 10:00 - 13:00,Sí,Sí,No,No,Sí,,POINT (0.80909597 41.79399795)
Vallès Oriental,Cardedeu,080462,Sí,41.6371375,2.35544466,Equipament cívic,Casal de la gent gran,"Av. Rei en Jaume, 55",938461007,NA,dl. a dv. 09:30 - 13:30 || Tancat de l’11 al 27 d’agost,Sí,Sí,No,Sí,Sí,60,POINT (2.35544466 41.6371375)
Barcelonès,Barcelona,080193,Sí,41.38782488,2.1544001,Altres,Mercat de Ninot,"C. Mallorca, 133",NA,NA,Juliol i Setembre: dl. a dv. 08:00 - 21:00 | ds. 08:00 - 21:00 || Agost: Tancat,Sí,Sí,Sí,Sí,Sí,,POINT (2.1544001 41.38782488)
Barcelonès,Santa Coloma de Gramenet,082457,Sí,41.44413551,2.21025517,Biblioteca,Biblioteca de Can Peixauet,"Av. de la Generalitat, 98, 08923 Santa Coloma de Gramenet, Barcelona",934665270,b.sta.colomag.cp@diba.cat,10:00 - 20:30,Sí,Sí,Sí,Sí,Sí,100,POINT (2.21025517 41.44413551)
Osona,Vic,082981,Sí,41.92022549,2.25821225,Parc densament arbrat,Parc Santa Anna,Parc Santa Anna,938862100,NA,Indefinit,Sí,Sí,Sí,No,Sí,,POINT (2.25821225 41.92022549)
Garrotxa,Besalú,170195,Sí,42.19941772,2.69888205,Biblioteca,Biblioteca Ramon Vidal - Can Cambó,"C. Major, 13",972591004,ajuntament@ajbesalu.cat,Indefinit,Sí,Sí,No,Sí,Sí,,POINT (2.69888205 42.19941772)
Alt Penedès,Mediona,081228,Sí,41.47674843,1.61136295,Equipament cívic,Casal d'avis Casa Nostra,"C. Dr. Trueta, 10",NA,NA,10:00 - 14:00 i 16:00 - 20:00,Sí,Sí,Sí,Sí,Sí,40,POINT (1.61136295 41.47674843)
Osona,Vic,082981,Sí,41.92318675,2.25558545,Altres,Plaça Francesc Moragas,Pl. Francesc Moragas,938862100,NA,Indefinit,Sí,Sí,Sí,No,Sí,,POINT (2.25558545 41.92318675)
Berguedà,"Espunyola, l'",080787,Sí,42.0541426,1.76793475,Sala polivalent,Local entitats,"Ctra. de Solsona C26, Km 136",938231055,espunyola@diba.cat,Indefinit,Sí,Sí,Sí,Sí,Sí,25,POINT (1.76793475 42.0541426)
Barcelonès,Barcelona,080193,Sí,41.4516064,2.19117845,Equipament cívic,Centre cívic Trinitat Vella,"C. Foradada, 36",NA,cctrinitatvella@bcn.cat,Juliol: dl. a dv. 08:00 - 21:00 | ds. 10:00 - 14:00 i 16:00 - 19:00 || Agost: Tancat || Setembre: dl. a dv. 08:00 - 21:00 | ds. 10:00 - 14:00,Sí,Sí,Sí,Sí,Sí,,POINT (2.19117845 41.4516064)
Baix Llobregat,Olesa de Montserrat,081477,Sí,41.54973906,1.88368974,Equipament cívic,CCC Olesa de Montserrat,"Ctra. de la Puda, 08640 Olesa de Montserrat, Barcelona",NA,NA,dl. a dv. 15:00 - 21:00 ||  Del 22 al 31 de juliol (puntual): 09:00 - 15:00 || Agost tancat,Sí,Sí,Sí,Sí,Sí,,POINT (1.88368974 41.54973906)
Barcelonès,"Hospitalet de Llobregat, l'",081017,Sí,41.36723024,2.11600486,Espai cultural,Centre d'Art Metropolità Tecla Sala,"Av. Josep Tarradellas, 44",934032630,teclasala@l-h.cat,11:00 - 14:00 i 17:00 - 20:00,Sí,Sí,Sí,Sí,Sí,,POINT (2.11600486 41.36723024)
Vallès Occidental,Santa Perpètua de Mogoda,082606,Sí,41.52877781,2.18001935,Equipament cívic,Centre cívic - Can Taiò,"Parc de Catalunya, s/n, 08130 Santa Perpètua de Mogoda",935443716,taio@staperpetua.cat,dl. a dv. 15:00 - 22:00 || Juliol: dl. a dj. 15:00 - 22:00 || Agost tancat,Sí,Sí,Sí,Sí,Sí,,POINT (2.18001935 41.52877781)
Barcelonès,Barcelona,080193,Sí,41.41553088,2.17067228,Parc densament arbrat,Jardins del Dr.Pla i Armengol,"Av. Mare de Déu de Montserrat, 132",NA,NA,dl. a dv. 10:00 - 22:30 | ds. 10:00 - 22:30 | dg. 10:00 - 22:30,Sí,Sí,NA,No,NA,,POINT (2.17067228 41.41553088)
Baix Llobregat,"Prat de Llobregat, el",081691,Sí,41.33025012,2.09022441,Altres,Centre Esportiu Fondo d'en Peixo,"C. Doctor Soler i Torrens, 47",934782767,cemfpeixo@elprat.cat,dl. a dv. 07:15 - 22:30 | ds. 08:00- 20:00 | dg. 08:00 - 14:00 || Agost tancat,Sí,Sí,No,No,Sí,,POINT (2.09022441 41.33025012)
Baix Llobregat,"Prat de Llobregat, el",081691,Sí,41.33007744,2.10378073,Altres,Centre Desenvolupament Econòmic,"C. de les Moreres, 48",934786878,NA,dl. a dv. 07:15 - 21:00 || Agost: dl. a dv. 07:15 - 15:00,Sí,Sí,Sí,Sí,Sí,,POINT (2.10378073 41.33007744)
Barcelonès,Barcelona,080193,Sí,41.37692842,2.13475202,Biblioteca,Biblioteca Vapor Vell,"Ptge. Vapor Vell, s/n",NA,b.barcelona.vv@diba.cat,"dl., dc. i dj. 09:30 - 13:30 i 15:30 - 20:30 | dt. i dv. 09:30 - 20:30 | Sala d'estudi: dl. a dj. 20:30 - 00:00 | ds. 10:00 - 14:00 | Sala d'estudi: 16:00 - 20:00 | dg. Sala d'estudi: 10:00 - 14:00",Sí,Sí,No,Sí,Sí,,POINT (2.13475202 41.37692842)
Pla de l'Estany,Banyoles,170157,Sí,42.12375512,2.76306577,Biblioteca,Biblioteca de Banyoles,"C. Llibertat, 155",972571602,NA,"dl. 16:00 - 20:00 | dt., dc. i dj. 10:30 - 14:00 i 16:00 - 20:00 | dv. 10:30 - 14:00 || Vacances del 12 al 16 d'agost",Sí,Sí,No,Sí,Sí,,POINT (2.76306577 42.12375512)
Maresme,Premià de Dalt,082303,Sí,41.50565304,2.34562338,Altres,Sala de plens ajuntament de Premia de Dalt,"Pl. de la fàbrica, 1",936931515,prmd.oac@premiadedalt.cat,dl. a dv. 08:30 - 13:15,Sí,Sí,Sí,Sí,Sí,,POINT (2.34562338 41.50565304)
Baix Camp,Vandellòs i l'Hospitalet de l'Infant,431628,Sí,41.01934912,0.8578454,Piscina,Piscina Masboquera,C. de Baix,977820523,info@vandellos-hospitalet.cat,12:00 - 20:00,Sí,Sí,Sí,Sí,Sí,50,POINT (0.8578454 41.01934912)
Barcelonès,Barcelona,080193,Sí,41.36600595,2.15108599,Poliesportiu,CEM Piscines Picornell,"Av. de l'Estadi, 30",NA,info@picornell.cat,dl. a dv. 06:45 - 00:00 | ds. 07:00 - 21:00 | dg. 07:30 - 19:00,Sí,Sí,Sí,Sí,NA,,POINT (2.15108599 41.36600595)
Vallès Occidental,Sant Llorenç Savall,082233,Sí,41.68019658,2.05861125,Altres,Casal de la gent gran,"C. Canigó, 17",937140531,NA,16:00 - 20:30,Sí,Sí,Sí,Sí,Sí,70,POINT (2.05861125 41.68019658)
Alt Penedès,Vilafranca del Penedès,083054,Sí,41.35518846,1.70352026,Equipament cívic,Espai jove La Nau,"C. Baltà de Cela, 45",636935466,lanau@vilafranca.org,10:00 - 15:30 i 17:00 - 22:00,Sí,Sí,Sí,Sí,Sí,,POINT (1.70352026 41.35518846)
Tarragonès,Tarragona,431482,Sí,41.12070837,1.19370145,Equipament cívic,Centre cívic Bonavista,"C. Onze, 13, Bonavista, 43100 Tarragona",977550231,ajuntament@tarragona.cat,08:00 - 15:00,Sí,Sí,Sí,Sí,Sí,10,POINT (1.19370145 41.12070837)
Gironès,Canet d'Adri,170405,Sí,42.03321122,2.73418311,Poliesportiu,Pavelló municipal,Ctra. Vella,972428280,ajuntament@canet-adri.cat,Indefinit,Sí,Sí,Sí,Sí,Sí,,POINT (2.73418311 42.03321122)
Barcelonès,Barcelona,080193,Sí,41.43278971,2.1607239,Equipament cívic,Centre cívic Matas i Ramis,"Feliu i Codina, 20",NA,ccmatasiramis@bcn.cat,Juliol i Setembre: dl. a dv. 08:30 - 22:00 || Agost: Tancat,Sí,Sí,Sí,Sí,Sí,,POINT (2.1607239 41.43278971)
Baix Llobregat,Begues,080207,Sí,41.33106509,1.91861128,Sala polivalent,L'Escorxador,"Av. Sitges, 12, 08859 Begues",936392082,begues@begues.cat,Agost: dl. a dv. 16:00 - 20:00,Sí,Sí,No,Sí,Sí,100,POINT (1.91861128 41.33106509)
Barcelonès,Barcelona,080193,Sí,41.45133632,2.17629509,Espai cultural,Castell de Torre Baró,"Ctra. Alta de les Roquetes, 309",NA,castell_torrebaro@bcn.cat,Juliol i Setembre: dt. a dj. 10:00 - 13:00 | dv. 10:00 - 13:00 i 17:00 - 20:00 | ds. 10:00 - 20:00 | dg. 10:00 - 14:00 || Agost: dt. a dj. 10:00 - 13:00 | dv. 10:00 - 13:00 i 17:00 - 20:00 | ds. 10:00 - 20:00 | dg. 10:00 - 14:00 | Tancat la segona i tercera setmana,Sí,Sí,No,Sí,Sí,,POINT (2.17629509 41.45133632)
Gironès,Bescanó,170209,Sí,41.96238668,2.7380545,Altres,Casal d'avis,"Pg. de la Torre, s/n",972440779,NA,13:00 - 20:00 i 10:00 - 13:00,Sí,Sí,Sí,Sí,Sí,,POINT (2.7380545 41.96238668)
Gironès,Girona,170792,Sí,41.97116915,2.81013778,Centre educatiu,Escola Àgora,"Pg. Ramon Berenguer II, 4 17005 Girona",972239942,b7001838@gmail.com,dl. a dv. 18:00 - 21:00,Sí,Sí,No,No,Sí,10,POINT (2.81013778 41.97116915)
Gironès,Girona,170792,Sí,41.97536399,2.81071131,Altres,Església parroquial de Sant Narcís,"Pl. Assumpció, 18",972231201,parroquiasantnarcis@gmail.com,08:30 - 10:30,Sí,Sí,Sí,Sí,Sí,50,POINT (2.81071131 41.97536399)
Vallès Occidental,Terrassa,082798,Sí,41.56376555,2.02151345,Biblioteca,Biblioteca Campus UPC,"Pl. del Campus, 1",937398062,NA,Juliol: 08:30 - 14:00 || Agost tancat || Setembre: 08:30 - 20:30,Sí,Sí,No,Sí,Sí,,POINT (2.02151345 41.56376555)
Barcelonès,Barcelona,080193,Sí,41.38552854,2.18641325,Piscina,Piscines del Centre Esportiu Municipal Parc de la Ciutadella,"Pg. de Circumval·lació, 1",NA,info-ciutadella@okeymas.es,dl. a dv. 07:00 - 22:30 | ds. 08:00 - 20:00 | dg. 08:00 - 14:00,No,Sí,NA,NA,NA,,POINT (2.18641325 41.38552854)
Baix Empordà,Regencós,171447,Sí,41.95297079,3.17129221,Sala polivalent,Antigues escoles de Regencós,"C. Torres Jonama, 3",972611369,ajuntament@regencos.cat,Indefinit,Sí,Sí,Sí,Sí,Sí,25,POINT (3.17129221 41.95297079)
Bages,Manresa,081136,Sí,41.72740779,1.81923091,Equipament cívic,Centre cívic Selves i Carner,"C. Bernat i Oller, 14-16",938727477,selves@ajmanresa.cat,Indefinit,Sí,Sí,Sí,Sí,Sí,25,POINT (1.81923091 41.72740779)
Gironès,Girona,170792,Sí,41.98381651,2.82325239,Espai cultural,Museu del cinema de Girona (zona vestíbul i sales d'exposicions temporals),"C. de la Séquia, 1, 17001 Girona",972412777,info@museudelcinema.cat,dl. a ds.10:00 - 19:00 | dg. 10:00 - 14:00,Sí,Sí,No,Sí,Sí,5,POINT (2.82325239 41.98381651)
Barcelonès,Barcelona,080193,Sí,41.43060441,2.14392148,Parc densament arbrat,Jardins de Pedro Muñoz Seca,"Arquitectura, 1",NA,NA,Indefinit,Sí,Sí,NA,No,Sí,,POINT (2.14392148 41.43060441)
Ribera d'Ebre,Móra d'Ebre,430939,Sí,41.08864814,0.64457194,Altres,Estació d'autobusos,"Camí de les Hortes, 8",977401291,ajuntament@moradebre.cat,06:00 - 21:00,Sí,Sí,Sí,Sí,Sí,36,POINT (0.64457194 41.08864814)
Tarragonès,"Pallaresos, els",431009,Sí,41.17418029,1.27258125,Altres,Ajuntament,"Av. Catalunya, 8",977610600,ajuntament@elspallaresos.cat,dl. a dv. 09:00  - 14:00 | dt. 16:30 - 18:30,Sí,Sí,Sí,Sí,Sí,,POINT (1.27258125 41.17418029)
Vallès Occidental,Terrassa,08222,Sí,41.5706352,2.0022225,Equipament cívic,Casal Cívic i Comunitari Terrassa - Casal,"C. de Wagner, 2",937854416,cc.terrassacentre@gencat.cat,dl. a dv. 09:00 - 21:00 | ds. 10:00 - 21:00,Sí,Sí,Sí,Sí,Sí,306,POINT (2.0022225 41.5706352)
Barcelonès,Barcelona,08033,Sí,41.4496433,2.1914032,Equipament cívic,Casal Cívic i Comunitari Barcelona - Trinitat Vella,"C. de la Madriguera, 38-42, baixos",933454561,cc.barcelonatrinitatvella@gencat.cat,dl. a dv. 09:00 - 21:00 | ds. 10:00 - 21:00,Sí,Sí,Sí,Sí,Sí,158,POINT (2.1914032 41.4496433)
Vallès Occidental,Terrassa,082798,Sí,41.56521507,2.04216374,Parc densament arbrat,Parc de Guernika,C. Álava - C. Burgos,NA,NA,Indefinit,Sí,Sí,No,No,Sí,,POINT (2.04216374 41.56521507)
Tarragonès,Tarragona,431482,Sí,41.11992822,1.25514211,Parc densament arbrat,Camp de Mart,"Av. Catalunya, 43002 Tarragona",NA,NA,Indefinit,Sí,Sí,Sí,No,Sí,80,POINT (1.25514211 41.11992822)
Barcelonès,Barcelona,080193,Sí,41.38569319,2.1341933,Piscina,Piscines del Centre Esportiu Municipal Les Corts,"Trav. de Les Corts, 252-254",NA,info.lescorts@holmesplace.es,Juliol i Agost: dl. a dv. 06:30 - 23:00 | ds. 08:00 - 20:00 | dg. 08:00 - 20:00 || Setembre: Indefinit,No,Sí,NA,NA,NA,,POINT (2.1341933 41.38569319)
Barcelonès,Barcelona,080193,Sí,41.39578127,2.16942481,Altres,Seu Districte Eixample,"C. Aragó, 311",NA,NA,Juliol i Setembre: dl. a dv. 07:30 - 18:00 || Agost: dl. a dv. 07:30 - 15:00,Sí,NA,NA,NA,NA,,POINT (2.16942481 41.39578127)
Alt Empordà,Vilajuïga,172235,Sí,42.32758966,3.0939555,Equipament cívic,Centre cívic Punt de Trobada,"Pl. Onze de Setembre, s/n",872206819,NA,Indefinit,No,Sí,No,Sí,Sí,,POINT (3.0939555 42.32758966)
Vallès Occidental,Rubí,081846,Sí,41.4946474,2.00535784,Parc densament arbrat,Parc del carrer Aneto (Ximelis),Parc del C. Aneto (Ximelis),NA,NA,Indefinit,Sí,Sí,Sí,No,Sí,,POINT (2.00535784 41.4946474)
Vallès Occidental,Rubí,081846,Sí,41.48573096,2.03047463,Altres,"Oficina d’Atenció Ciutadana de Les Torres (OADF, ODE i Sector II de Serveis Socials)","Rblt. de Joan Miró, s/n, 08191 Rubí",935887000,oac@ajrubi.cat,"dl., dt., dc. i dv. 09:00 - 14:00 | dj. 09:00 - 14:00 i 16:00 - 19:30 || Agost tancat",Sí,Sí,No,No,Sí,5,POINT (2.03047463 41.48573096)
Barcelonès,Barcelona,080193,Sí,41.39383842,2.18021244,Parc densament arbrat,Carretera Antiga d'Horta,"Ctra. Antiga d'Horta, 7",NA,NA,dl. a dv. 10:00 - 22:00 | ds. 10:00 - 22:00 | dg. 10:00 - 22:00,Sí,NA,Sí,No,NA,,POINT (2.18021244 41.39383842)
Vallès Oriental,Lliçà de Vall,081081,Sí,41.58762814,2.23896406,Equipament cívic,Casal de la gent gran,"C. Montsià, 46",938438129,lldv.casalavis@llissadevall.cat,16:00 - 20:00,Sí,Sí,No,Sí,Sí,30,POINT (2.23896406 41.58762814)
Noguera,Albesa,250083,No,,,NA,NA,NA,NA,NA,NA,NA,NA,NA,NA,NA,,
Garrotxa,Olot,171143,Sí,42.18297924,2.4702314,Parc densament arbrat,Plaça del Pla de Dalt,C. Tartana,NA,NA,Indefinit,Sí,Sí,Sí,No,Sí,,POINT (2.4702314 42.18297924)
Barcelonès,Barcelona,080193,Sí,41.40668966,2.18629809,Poliesportiu,CEM Vintró,C. Consell de Cent,NA,vintro@asme.cat,Juliol i Setembre: Indefinit || Agost: dl. a dv. 07:00 - 22:30 | ds. 09:00 - 15:00,Sí,Sí,Sí,Sí,Sí,,POINT (2.18629809 41.40668966)
Osona,Gurb,081000,Sí,41.94011202,2.24386005,Espai cultural,Sala de cultura,"Mas l'Esperança, s/n",NA,NA,16:00 - 19:00,Sí,Sí,Sí,Sí,Sí,,POINT (2.24386005 41.94011202)
Maresme,Tiana,082824,Sí,41.47157568,2.27431048,Parc densament arbrat,Parc del Tramvia,"Av. Jordana, 92",NA,NA,Indefinit,Sí,Sí,Sí,No,Sí,1000,POINT (2.27431048 41.47157568)
Vallès Occidental,Terrassa,082798,Sí,41.56468638,2.02944373,Biblioteca,Biblioteca Districte 2,"C. Sant Cosme, 157",937869162,bd2@terrassa.cat,"dl., dt. i dj. 16:00 - 20:00 | dc. i dv. 09:30 - 13:30 i 16:00 - 20:00 || Agost tancat",Sí,Sí,No,Sí,Sí,,POINT (2.02944373 41.56468638)
Barcelonès,Barcelona,080193,Sí,41.44406743,2.17517027,Equipament cívic,Casal de barri Verdun,"C. Luz Casanova, 4",NA,casaldebarriverdun@casaldebarriverdun.cat,Juliol i Setembre: dl. a dv. 09:00 - 14:00 i 16:00 - 21:00 || Agost: Tancat,Sí,NA,No,Sí,Sí,,POINT (2.17517027 41.44406743)
Baix Camp,Castellvell del Camp,430424,Sí,41.17975873,1.09936283,Piscina,Piscina municipal,"Ctra. de Castellvell del Camp a Reus, 1",NA,ajuntament@castellvelldelcamp.cat,11:30 - 20:30,No,Sí,Sí,Sí,Sí,300,POINT (1.09936283 41.17975873)
Barcelonès,Barcelona,080193,Sí,41.38697365,2.14554819,Equipament cívic,Espai Montserrat Olivella,"Calàbria, 260",NA,espaimontserratolivella@gentgraneixample.cat,Juliol i Setembre: dl. a dv. 09:15 - 13:15 i 16:30 - 19:30 || Agost: Tancat,Sí,Sí,Sí,Sí,Sí,,POINT (2.14554819 41.38697365)
Maresme,Vilassar de Dalt,082140,No,,,NA,NA,NA,NA,NA,NA,NA,NA,NA,NA,NA,,
Bages,Callús,080386,Sí,41.78224035,1.78473483,Equipament cívic,Esplai de les Escoles velles,"C. Jacint Verdaguer, 20, 08262 Callús",NA,NA,Indefinit,Sí,Sí,Sí,Sí,Sí,30,POINT (1.78473483 41.78224035)
Vallès Occidental,Santa Perpètua de Mogoda,082606,Sí,41.53449205,2.18355951,Altres,Casa De La Vila,"Pl. de la vila, 5",935743234,NA,08:00 - 15:00,Sí,Sí,Sí,Sí,Sí,,POINT (2.18355951 41.53449205)
Osona,Vic,08500,Sí,41.9261305,2.2523012,Equipament cívic,Casal Cívic i Comunitari Vic - Mn. Josep Guiteras,"C. de la Soledat, 13",938851029,cc.vicmossenguiteras@gencat.cat,dl. a dv. 09:00 - 21:00 | dg. 10:00 - 21:00,Sí,Sí,Sí,Sí,Sí,2288,POINT (2.2523012 41.9261305)
Gironès,Girona,170792,Sí,41.97117832,2.81904264,Equipament cívic,Centre cívic Pla de Palau,"C. Saragossa, 27, 17002 Girona",972426390,centrecivicdepalau@ajgirona.cat,dl. a dv. 09:00 - 13:00 i 16:00 - 20:00 || Agost tancat,Sí,Sí,No,Sí,Sí,10,POINT (2.81904264 41.97117832)
Selva,Sant Hilari Sacalm,171642,Sí,41.87964847,2.50941409,Altres,Oficina de Turisme Can Rovira,Pl. del Dr. Robert,972869686,oficinadeturisme@santhilari.cat,dl. a ds. 10:00 - 13:00 i 16:00 - 19:00 | dg. i festius 10:00 - 13:30,Sí,Sí,No,Sí,Sí,,POINT (2.50941409 41.87964847)
Garrotxa,Maià de Montcal,170985,Sí,42.21956201,2.74627713,Piscina,Piscina municipal Ernest Lluch,"C. Girona, 3",972591051,ajuntament@maia.cat,11:00 - 20:00,No,Sí,No,Sí,Sí,,POINT (2.74627713 42.21956201)
Vallès Occidental,Santa Perpètua de Mogoda,082606,Sí,41.52737311,2.18514109,Biblioteca,Biblioteca Josep Jardí,"Ptge. del Mas Granollacs, s/n, 08130 Santa Perpètua de Mogoda",935606222,b.st.perpetua@diba.cat,"dt. 09:30 - 13:30 | dl., dc., dj. i dv. 15:30 - 20:00  || Juliol: dl. 15:30 -  20:00 | dt. a dv. 09:30 - 13:30 i 15:30 - 20:00  || Tancat del 7 al 27 d’agost",Sí,Sí,Sí,Sí,Sí,,POINT (2.18514109 41.52737311)
Barcelonès,Barcelona,080193,Sí,41.4192029,2.21511256,Altres,Mercat de Besòs,"C. Jaume Huguet, 38",NA,NA,Juliol i Setembre: dl. a dj. 07:30 - 14:00 | dv. 07:30 - 14:00 i 16:00 - 19:00 | ds. 07:30 - 14:00 || Agost: Tancat,Sí,Sí,Sí,Sí,No,,POINT (2.21511256 41.4192029)
Baix Llobregat,Olesa de Montserrat,081477,Sí,41.54447437,1.89078648,Altres,"Espai Fundació ""la Caixa""","Parc Municipal, s/n, 08640 Olesa de Montserrat, Barcelona",937782453,NA,dl. a dv. 09:45 - 12:45 i 16:00 - 20:00 || Agost tancat,Sí,Sí,Sí,Sí,Sí,,POINT (1.89078648 41.54447437)
Noguera,Balaguer,25600,Sí,41.4088959,0.8678702,Equipament cívic,Casal Cívic i Comunitari Balaguer - Eixample,"C. d'Urgell, 5",973446259,balaguereixample.casal@gencat.cat,Juliol: dl. a dv. 09:00 - 21:00 | ds. i dg. 15:00 - 21:00 || Agost: dl. a dv. 12:00 - 20:00,Sí,Sí,Sí,Sí,Sí,250,POINT (0.8678702 41.4088959)
Baix Camp,Reus,431233,Sí,41.16083214,1.10277371,Espai cultural,La Palma,"C. Ample, 75, 43202 Reus, Tarragona",977010652,lapalma@reuscultura.cat,dl. a ds. 14:00 - 21:00,Sí,Sí,Sí,Sí,Sí,,POINT (1.10277371 41.16083214)
Gironès,Girona,170792,Sí,41.97720089,2.8239443,Parc densament arbrat,Jardins d'en Pablito,Jdins. d'en Pablito,972419000,ajuntamentinforma@ajgirona.cat,Indefinit,Sí,Sí,No,No,Sí,,POINT (2.8239443 41.97720089)
Barcelonès,Barcelona,080193,Sí,41.37933209,2.12777555,Equipament cívic,Centre cívic Joan Oliver Pere Quart,"C. Comandant Benítez, 6",NA,perequart@lleuresport.cat,Juliol i Setembre: dl. a dv. 09:00 - 21:45 | ds. 09:00 - 13:45 | dg. 09:00 - 13:45 || Agost: Tancat,Sí,Sí,No,Sí,Sí,,POINT (2.12777555 41.37933209)
Noguera,Ponts,25740,Sí,41.9154801,1.1833158,Equipament cívic,Casal Cívic i Comunitari Ponts,"Pl. Planell, 7",973460928,cc.ponts@gencat.cat,Juliol: dl. a dv. 09:00 - 13:30 i 15:00 - 21:00 | ds. 10:00 - 13:30 i 15:00 - 20:00 || Agost: dl. a dv. 11:00 - 19:00,Sí,Sí,Sí,Sí,Sí,115,POINT (1.1833158 41.9154801)
Vallès Occidental,Sabadell,08207,Sí,41.5701946,2.0638516,Equipament cívic,Casal Cívic i Comunitari Sabadell - Roureda,"C. de Costabona, s/n",937239840,cc.sabadellroureda@gencat.cat,dl. a dv. 09:00 - 21:00 i | ds. 10:00 - 21:00,Sí,Sí,Sí,Sí,Sí,60,POINT (2.0638516 41.5701946)
Berguedà,Casserres,080497,Sí,42.01343951,1.8331343,Piscina,Piscines de Casserres,"Ctra. de l'Espunyola, s/n",938234203,NA,10:00 - 20:00,No,No,No,Sí,Sí,200,POINT (1.8331343 42.01343951)
Osona,Sant Hipòlit de Voltregà,082153,Sí,42.01559817,2.23649046,Altres,Ajuntament de Sant Hipòlit de Voltregà,"Pl. de la Vila, 1",938502626,st.hipolit@diba.cat,10:00 - 14:00,Sí,Sí,Sí,Sí,Sí,,POINT (2.23649046 42.01559817)
Barcelonès,Barcelona,080193,Sí,41.41579758,2.18229795,Biblioteca,Biblioteca Camp de l'Arpa - Caterina Albert,"Indústria, 295",NA,b.barcelona.ca@diba.cat,"Juliol i Setembre: dt., dj. i dv. 09:30 - 13:30 i 15:30 - 20:00 | dl. i dc. 15:30 - 20:00 || Agost: Tancat",Sí,Sí,No,Sí,Sí,,POINT (2.18229795 41.41579758)
Barcelonès,Barcelona,080193,Sí,41.3760567,2.16081859,Parc densament arbrat,Jardins Tres Tombs,"C. Calàbria, 940",NA,NA,dl. a dv. 10:00 - 22:00 | ds. 10:00 - 22:00 | dg. 10:00 - 22:00,Sí,NA,Sí,No,NA,,POINT (2.16081859 41.3760567)
Osona,Tona,082830,Sí,41.85039871,2.2299575,Biblioteca,Biblioteca Caterina Figueras,"C. de la Font, 9",938871395,b.tona.cf@diba.cat,dl. a dv. 15:00 - 20:00,Sí,Sí,No,Sí,Sí,301,POINT (2.2299575 41.85039871)
Vallès Occidental,Terrassa,082798,Sí,41.57692023,2.00628977,Equipament cívic,Centre cívic Avel·lí Estrenjer,"Pl. de la Cultura, 5",937342603,NA,dl. a dv. 09:00 - 21:00 | ds. 10:00 - 14:00 i 16:00 a 20:00 || Agost tancat,Sí,Sí,Sí,Sí,Sí,,POINT (2.00628977 41.57692023)
Priorat,"Molar, el",430859,Sí,41.16345134,0.70361532,Piscina,Piscina municipal,"Ctra. del Molar a Garcia, s/n",977825127,aj.molar@altanet.org,Indefinit,Sí,Sí,Sí,Sí,Sí,,POINT (0.70361532 41.16345134)
Solsonès,Castellar de la Ribera,250642,No,,,NA,NA,NA,NA,NA,NA,NA,NA,NA,NA,NA,,
Baix Ebre,Roquetes,431331,Sí,40.8178798,0.50669657,Parc densament arbrat,Parc Hort de Cruells,Parc Hort de Cruells,NA,NA,Indefinit,Sí,Sí,Sí,No,Sí,,POINT (0.50669657 40.8178798)
Barcelonès,Barcelona,080193,Sí,41.43386924,2.16796557,Equipament cívic,Casal de barri La Cosa Nostra,"C.Biure, 1",NA,lcn_canpeguera@hotmail.com,"Juliol i Setembre: dl., dt. i dj. 16:30 - 21:00 | dc. i dv. 10:00 - 13:00 || Agost: Tancat",Sí,NA,No,Sí,Sí,,POINT (2.16796557 41.43386924)
Baix Penedès,Sant Jaume dels Domenys,431378,Sí,41.2979244,1.5600928,Biblioteca,Biblioteca Alfons Maseras,"C. Germanor, 8",977677113,NA,10:00 - 16:00,Sí,Sí,No,Sí,Sí,50,POINT (1.5600928 41.2979244)
Barcelonès,Barcelona,080193,Sí,41.39579883,2.16943035,Altres,Mercat de Concepció,"C. Aragó, 311 bis",NA,NA,Juliol i Setembre: dl. 08:00 - 15:00 | dt. a dv. 08:00 - 20:00 | ds. 08:00 - 15:00 || Agost: Tancat,Sí,Sí,Sí,Sí,Sí,,POINT (2.16943035 41.39579883)
Barcelonès,Badalona,080155,Sí,41.4568018,2.25279947,Parc densament arbrat,Parc de Can Solei i Ca l'Arnús,C. Seu d'Urgell amb C. Méndez Núñez,NA,NA,07:45 - 21:00,Sí,Sí,Sí,No,Sí,,POINT (2.25279947 41.4568018)
Alt Empordà,Espolla,170643,Sí,42.39072451,3.00081304,Sala polivalent,Sala de la societat La Fraternal,"Pl. del Carme, 1",972563004,ajuntament@espolla.cat,09:00 - 22:00,Sí,Sí,Sí,Sí,Sí,110,POINT (3.00081304 42.39072451)
Alt Empordà,Ordis,171156,Sí,42.21803233,2.90900186,Sala polivalent,Centre social,"C. de l'Empordà, 14",NA,NA,Indefinit,Sí,Sí,No,Sí,Sí,150,POINT (2.90900186 42.21803233)
Garrotxa,Olot,171143,Sí,42.1922121,2.50866438,Parc densament arbrat,Parc dels Ocells,Rda. de les Mates,NA,NA,Indefinit,Sí,Sí,Sí,No,Sí,,POINT (2.50866438 42.1922121)
Osona,Roda de Ter,081831,Sí,41.98646779,2.31148821,Parc densament arbrat,Jardins de l’escolale Música,"Av. Tecla Sala, 35",NA,NA,09:00 - 21:00,Sí,Sí,Sí,No,Sí,,POINT (2.31148821 41.98646779)
Barcelonès,Barcelona,080193,Sí,41.43408576,2.17918271,Equipament cívic,Centre cívic Can Verdaguer,"C. de Piferrer, 94-100",NA,info@canverdaguer.com,"Juliol i Setembre: dl. a dv. 09:30 - 14:00 i 16:00 - 21:30 | ds. 10:00 - 14:00 i 16:30 - 21:30 || Agost: dl. a dv. (6, 8, 13, 22 i 27 i 29 d’agost) 16:00 - 18:00",Sí,Sí,No,Sí,No,,POINT (2.17918271 41.43408576)
Gironès,Fornells de la Selva,170736,Sí,41.93435189,2.81204352,Sala polivalent,Centre Social,"C. Vicens Vives, 1 1r pis - 17458 Fornells de la Selva",NA,mediambient@fornellsdelaselva.cat,10:00 - 21:00,Sí,Sí,Sí,Sí,Sí,,POINT (2.81204352 41.93435189)
Bages,Manresa,081136,Sí,41.72523958,1.82332377,Altres,Associació de veïns Passeig i rodalies,"C. Jaume I, 8, entresòl",938725962,aavvpasseigirodalies@gmail.com,Indefinit,Sí,Sí,Sí,Sí,Sí,20,POINT (1.82332377 41.72523958)
Osona,Tavertet,082802,Sí,41.99409192,2.41578629,Piscina,Piscina municipal,"C. Jaume Balmes, 45",938565079,tavertet@tavertet.cat,10:00 - 20:00,No,Sí,No,Sí,Sí,140,POINT (2.41578629 41.99409192)
Barcelonès,Barcelona,080193,Sí,41.40607401,2.15664197,Espai cultural,Fundació Festa Major de Gràcia - Can Musons,"C. de l'Alzina, 9",NA,info@festamajordegracia.cat,Juliol: dl. a dv. 16:30 - 20:30 || Agost: dl. a dv. 10:00 - 21:00 | a partir del 11 d'agost | ds. 10:00 - 21:00 | de l'1 fins al 21 d'agost | dg. 10:00 - 21:00 | de l'1 al 21 d'agost || Setembre: Tancat,Sí,Sí,No,Sí,Sí,,POINT (2.15664197 41.40607401)
Ripollès,Planoles,171349,Sí,42.317288,2.10071462,Piscina,Piscina municipal,"Camí de la Serreta, s/n",610498165,ajuntament@planoles.cat,10:00 - 19:00,No,Sí,Sí,Sí,Sí,168,POINT (2.10071462 42.317288)
Barcelonès,Barcelona,080193,Sí,41.41336711,2.21749208,Equipament cívic,Casal de gent gran Joan Maragall,"C. Bermejo, 1",NA,casalgg.joanmaragall@bcn.cat,Juliol i Setembre: dl. a dv. 09:30 - 13:30 i 16:00 - 20:00 || Agost: dl. a dv. 16:00 - 19:00,Sí,Sí,No,Sí,Sí,,POINT (2.21749208 41.41336711)
Vallès Occidental,Sabadell,081878,Sí,41.53779115,2.12563901,Piscina,La Bassa,"Camí de Can Quadres, 179",937259979,NA,10:00 - 19:30,No,Sí,Sí,Sí,Sí,,POINT (2.12563901 41.53779115)
Barcelonès,Barcelona,080193,Sí,41.38427655,2.1773409,Espai cultural,Museu d'Història de Barcelona - Avantcambra Saló del Tinell,"Pl. del Rei, 10",NA,informaciomuhba@bcn.cat,Juliol i Agost: dt. a dg. 10:00 - 19:00 || Setembre: dt. a dg. 11:00 - 19:00,Sí,Sí,No,Sí,Sí,,POINT (2.1773409 41.38427655)
Barcelonès,Barcelona,080193,Sí,41.42708573,2.1672035,Centre educatiu,Escola Bressol Municipal El Cargol,"C. Mossèn Josep Bundó, 6",NA,ebmcargol@bcn.cat,Juliol: Tancat | ds. 10:30 - 13:00 || Agost: Tancat || Setembre: Tancat | Fins el 14: ds. 10:30 - 13:00,Sí,Sí,Sí,NA,Sí,,POINT (2.1672035 41.42708573)
Vallès Occidental,Santa Perpètua de Mogoda,082606,Sí,41.52555448,2.18884863,Parc densament arbrat,Parc dels Ametllers,"Pg. de la Florida, 08130 Santa Perpètua de Mogoda, Barcelona",NA,NA,Indefinit,Sí,Sí,Sí,No,Sí,,POINT (2.18884863 41.52555448)
Baix Empordà,Rupià,171539,Sí,42.0201328,3.0114381,Espai cultural,Teatre de Rupià,"C. Indústria, 2",972769274,mediambient@rupia.cat,08:00 - 14:00 (en alerta PROCICAT),Sí,Sí,Sí,Sí,Sí,40,POINT (3.0114381 42.0201328)
Barcelonès,Barcelona,080193,Sí,41.42731928,2.18915467,Parc densament arbrat,Parc de la Pegaso,"C. de la Sagrera, 179-197",NA,NA,dl. a dv. 10:00 - 22:30 | ds. 10:00 - 22:30 | dg. 10:00 - 22:30,Sí,Sí,Sí,No,NA,,POINT (2.18915467 41.42731928)
Selva,Santa Coloma de Farners,171805,Sí,41.86522243,2.66370272,Equipament cívic,Llar de jubilats,"C. Anselm Clavé, 19",972841915,NA,17:00 - 20:00,Sí,Sí,Sí,Sí,Sí,,POINT (2.66370272 41.86522243)
Baix Llobregat,Sant Andreu de la Barca,081960,Sí,41.45134828,1.97052324,Altres,Casal de la gent gran Maria Aurelia Campmany,Pg. de la Generalitat,936821319,NA,dl. a dv. 09:30 - 12:30 i 16:00 - 20:00,Sí,Sí,Sí,Sí,Sí,10,POINT (1.97052324 41.45134828)
Vallès Oriental,Sant Antoni de Vilamajor,081982,Sí,41.63860856,2.37394644,Altres,Font Lúdica del Parc de Can Sauleda,"C. Llinars, 325",NA,NA,Indefinit,Sí,No,Sí,No,Sí,,POINT (2.37394644 41.63860856)
Osona,Vic,082981,Sí,41.93103051,2.26054215,Altres,Plaça Divina Pastora,Pl. Divina Pastora,938862100,NA,Indefinit,Sí,Sí,Sí,No,Sí,,POINT (2.26054215 41.93103051)
Pla de l'Estany,Banyoles,170157,Sí,42.12469162,2.76993171,Altres,Plaça Cruyff Court Andreu Fontàs/ barri Canaleta,Pl. Cruyff Court Andreu Fontàs,NA,NA,Indefinit,Sí,Sí,No,No,No,,POINT (2.76993171 42.12469162)
Alt Camp,Vallmoll,431606,Sí,41.24681982,1.24655856,Piscina,Piscina municipal,"C. Joan Manel Serrat, s/n",977637087,aj.vallmoll@vallmoll.cat,10:00 - 13:00 i 16:00 - 19:00,No,Sí,Sí,Sí,Sí,200,POINT (1.24655856 41.24681982)
Barcelonès,Badalona,080155,Sí,41.46188929,2.23928572,Parc densament arbrat,Parc Torrents i Lladó,"Av. Martí Pujol, 614",NA,NA,Indefinit,Sí,Sí,Sí,No,Sí,,POINT (2.23928572 41.46188929)
Barcelonès,Barcelona,080193,Sí,41.44013063,2.14551765,Parc densament arbrat,Parc del Laberint d'Horta,"Pg. Castanyers, 1",NA,NA,dl. a dv. 10:00 - 21:00 | ds. 10:00 - 21:00 | dg. 10:00 - 21:00,Sí,Sí,Sí,Sí,Sí,,POINT (2.14551765 41.44013063)
Garrigues,Vinaixa,252555,Sí,41.42803665,0.97648256,Equipament cívic,Centre de serveis,"Ctra. de tarragona, 3",973175769,biblioteca@vinaixa.cat,15:00 - 19:00,Sí,Sí,Sí,Sí,Sí,50,POINT (0.97648256 41.42803665)
Baix Llobregat,Sant Joan Despí,08970,Sí,41.3667335,2.054388,Equipament cívic,Casal Cívic i Comunitari Sant Joan Despí,"C. de Rius i Taulet, 4",933731683,cc.santjoandespi@gencat.cat,"dl. a dv.,de 09:00 - 21:00 | ds. 10:00 - 21:00",Sí,Sí,Sí,Sí,Sí,100,POINT (2.054388 41.3667335)
Barcelonès,Barcelona,080193,Sí,41.35951603,2.14525898,Altres,Centre d'Atenció Integral (CAI) Marina,"Foc, 97",NA,NA,"Juliol i Setembre: dl., dc. i dv. 08:30 - 19:30. | dt. i dj. 08:30 - 13:30 i 15:00 - 19:30 | ds. 09:30 - 13:30 || Agost: dl. a dv. 08:30 - 14:30",Sí,Sí,Sí,Sí,NA,,POINT (2.14525898 41.35951603)
Vallès Oriental,Figaró-Montmany,081347,Sí,41.71485491,2.26999693,Piscina,Piscina municipal,"Ctra. de Ribes, s/n",689854401,figaro@figaro-montmany.cat,11:00 - 20.00,Sí,Sí,No,Sí,Sí,300,POINT (2.26999693 41.71485491)
Baix Llobregat,Cornellà de Llobregat,08940,Sí,41.3596847,2.0572866,Equipament cívic,Casal Cívic i Comunitari Cornellà de Llobregat - Fontsanta,"Pl. de Gandesa, s/n",934740790,cc.fontsanta@gencat.cat,dl. a dv. 14:30 - 21:30,Sí,Sí,Sí,Sí,Sí,100,POINT (2.0572866 41.3596847)
Vallès Occidental,Santa Perpètua de Mogoda,082606,Sí,41.53658202,2.17725323,Equipament cívic,Centre cívic - La Creueta,"Parc del Doctor Miró, s/n, 08130 Santa Perpètua de Mogoda",935607588,creueta@staperpetua.cat,dl. a dv. 15:00 - 22:00 || Juliol: dl. a dj. 15:00 - 22:00 || Agost tancat,Sí,Sí,Sí,Sí,Sí,,POINT (2.17725323 41.53658202)
Baix Llobregat,Sant Joan Despí,082172,Sí,41.37079777,2.07053041,Piscina,Piscines Fontsanta,"C. del Marquès de Monistrol, 30",934772077,NA,"dl. a dv. 11:00 - 20:00 | ds., dg. i festius 10:30 - 20:00",No,Sí,No,Sí,Sí,,POINT (2.07053041 41.37079777)
Solsonès,Llobera,251291,No,,,NA,NA,NA,NA,NA,NA,NA,NA,NA,NA,NA,,
Barcelonès,Barcelona,080193,Sí,41.42590663,2.1937809,Biblioteca,Biblioteca La Sagrera-Marina Clotet,"C. de Josep Soldevila, 9",NA,b.barcelona.mc@diba.cat,"Juliol i Setembre: dt., dc., dj. i dv. 09:30 - 13:30 i 15:30 - 20:00 | dl. 15:30 - 20:00 || Agost: Tancat",Sí,No,No,Sí,Sí,,POINT (2.1937809 41.42590663)
Maresme,Sant Andreu de Llavaneres,081976,Sí,41.57213754,2.4846893,Equipament cívic,Casal jove - Can Rivière,"C. Mare de Déu de Montserrat, 45",937023626,casaljove@ajllavaneres.cat,09:00 - 14:00,Sí,Sí,Sí,Sí,Sí,10,POINT (2.4846893 41.57213754)
Barcelonès,Barcelona,080193,Sí,41.39239419,2.1980204,Poliesportiu,CEM Nova Icària,Av. Icària,NA,recepcio@novaicaria.com,dl. a dv. 07:00 - 23:00 | ds. 08:00 - 22:00 | dg. 08:00 - 15:00,Sí,Sí,No,Sí,Sí,,POINT (2.1980204 41.39239419)
Maresme,Palafolls,081555,Sí,41.67192409,2.75153803,Piscina,Piscina Palafolls,"Trav. de les Esplanes, s/n",937620043,palafolls@palafolls.cat,10:00 -  19:00,No,Sí,No,Sí,Sí,300,POINT (2.75153803 41.67192409)
Anoia,Capellades,080446,Sí,41.52678896,1.68380382,Parc densament arbrat,Parc de la Font Cuitora,"C.Pau Casals, s/n",938011001,capellades@capellades.cat,Indefinit,Sí,Sí,Sí,No,Sí,,POINT (1.68380382 41.52678896)
Moianès,Castellterçol,080641,Sí,41.75075335,2.12005363,Equipament cívic,Escoles Velles (sala Polivalent),"Pl. dels estudis, s/n",NA,NA,dl. a ds. 17:00 - 20:00,Sí,Sí,Sí,Sí,Sí,,POINT (2.12005363 41.75075335)
Conca de Barberà,Solivella,431476,Sí,41.45290679,1.1773398,Piscina,Piscina municipal,Ctra. de Poblet,977892101,secretaria@solivella.cat,09:00 - 19:00,No,Sí,Sí,Sí,Sí,50,POINT (1.1773398 41.45290679)
Barcelonès,Barcelona,080193,Sí,41.43234776,2.14680751,Equipament cívic,Casal de gent gran Vall Hebron,"Arquitecte Moragas, 5",NA,cggvallhebron@bcn.cat,Juliol: dl. a dv. 09:30 - 14:00 | ds. 16:00 - 20:00 | dg. 16:00 - 20:00 || Agost: Tancat || Setembre: dl. a dv. 09:30 - 13:30 i 16:00 - 20:00 | ds. 16:00 - 20:00 | dg. 16:00 - 20:00,Sí,Sí,Sí,Sí,Sí,,POINT (2.14680751 41.43234776)
Barcelonès,Barcelona,080193,Sí,41.40234694,2.17037651,Equipament cívic,Casal barri Ateneu el Poblet,"Nàpols, 268",NA,info@ateneuelpoblet.cat,Juliol: dl. - dv. 10:00 - 15:00 i 17:00 - 21:30 || Agost: Tancat || Setembre: Des del 9: dl. a dv. 09:00 - 21:00,Sí,Sí,No,Sí,Sí,,POINT (2.17037651 41.40234694)
Maresme,"Masnou, el",081189,Sí,41.47641871,2.3064563,Parc densament arbrat,Jardins de Can Targa,"C. Can Targa, s/n",NA,NA,Indefinit,Sí,Sí,Sí,No,Sí,,POINT (2.3064563 41.47641871)
Segarra,Cervera,250729,Sí,41.67732713,1.2715636,Piscina,Complex esportiu municipal,"Av. de l'esport, 1",973532036,info@cemcervera.cat,11:00 - 20:00,No,Sí,Sí,Sí,Sí,300,POINT (1.2715636 41.67732713)
Barcelonès,Barcelona,080193,Sí,41.4153521,2.15816408,Piscina,Piscines del Centre Esportiu Municipal Can Toda,"C. Ramiro de Maeztu, 25",NA,cnc@cncatalunya.cat,Juliol i Agost: dl. a dv. 09:00 - 20:00 | ds. 09:00 - 20:00 | dg. 09:00 - 15:30 || Setembre: dl. a dv. 08:00 - 21:00 | ds. 08:00 - 21:00 | dg. 08:00 - 15:30,No,Sí,NA,NA,NA,,POINT (2.15816408 41.4153521)
Vallès Occidental,Rubí,081846,Sí,41.48741041,2.04113431,Parc densament arbrat,Plaça del Veïnat (zona de plataners),"C. Terol, s/n",NA,NA,Indefinit,Sí,Sí,Sí,No,Sí,,POINT (2.04113431 41.48741041)
Baix Llobregat,Olesa de Montserrat,081477,Sí,41.55443421,1.89129347,Piscina,Piscina d'estiu,"C. de l'Urgell, 90, 08640 Olesa de Montserrat, Barcelona",NA,NA,10:00 - 20:00,No,Sí,No,Sí,Sí,,POINT (1.89129347 41.55443421)
Barcelonès,Barcelona,08020,Sí,41.4348465,2.1946244,Equipament cívic,Casal Cívic i Comunitari Barcelona - La Pau,"Pl. de la Pau, 2",932781287,cc.barcelonalapau@gencat.cat,dl. a dv. 09:00 - 14:00 i 15:00 - 21:00,Sí,Sí,Sí,Sí,Sí,100,POINT (2.1946244 41.4348465)
Vallès Occidental,Santa Perpètua de Mogoda,082606,Sí,41.54599741,2.18060806,Parc densament arbrat,Bosc de la Torre,"C. Mar Adriàtic, 2, 08130 Santa Perpètua de Mogoda",NA,NA,Indefinit,Sí,Sí,Sí,No,Sí,,POINT (2.18060806 41.54599741)
Baix Empordà,Palafrugell,171175,Sí,41.91583194,3.16436512,Biblioteca,Biblioteca municipal,"C. de Sant Martí, 18",972304809,palafrugell@bibgirona.net,dl. a dv. 10:00 - 13:30 i 16:00 - 19:30 | ds. 10:00 - 13:30,Sí,Sí,No,Sí,Sí,50,POINT (3.16436512 41.91583194)
Conca de Barberà,Pira,431074,Sí,41.4237,1.20321,Sala polivalent,Casal pirenc,"C. Sant Sebastià, s/n",977887006,aj.pira@altanet.org,11:00 - 19:00,Sí,Sí,No,Sí,Sí,70,POINT (1.20321 41.4237)
Alt Camp,"Garidells, els",430666,Sí,41.2073674,1.24749148,Equipament cívic,Casal municipal,"Av. Catalunya, 2",NA,NA,09:00 - 21:00,Sí,Sí,No,Sí,Sí,60,POINT (1.24749148 41.2073674)
Tarragonès,Tarragona,431482,Sí,41.12278168,1.21843055,Altres,OMAC Ponent,"C. de Tortosa, 39, 43006 Tarragona",977296258,ajuntament@tarragona.cat,09:00 - 14:00,Sí,Sí,Sí,Sí,Sí,5,POINT (1.21843055 41.12278168)
Berguedà,Viver i Serrateix,083089,No,,,NA,NA,NA,NA,NA,NA,NA,NA,NA,NA,NA,,
Baix Camp,Reus,431233,Sí,41.15447,1.11251035,Equipament cívic,Casal cívic Reus - La Rambla (GENCAT),"Riera d'Aragó, 11, 43204 Reus, Tarragona",977302490,cc.reuslarambla@reus.cat,Juliol: dl. a dv. 09:00 - 21:00 | ds. i dg. 10:00 a 14:00  || Agost: dl. a dv. 11:00 - 19:00,Sí,Sí,Sí,Sí,Sí,,POINT (1.11251035 41.15447)
Alt Camp,Bràfim,430347,Sí,41.26692707,1.34823067,Piscina,Piscina municipal de Bràfim,Camí de l'Ermita,NA,NA,12:00 - 20:00,No,Sí,Sí,Sí,Sí,100,POINT (1.34823067 41.26692707)
Vallès Occidental,Terrassa,082798,Sí,41.56668167,2.02562548,Parc densament arbrat,Plaça Catalunya,"Av. Barcelona, s/n",NA,NA,Indefinit,Sí,Sí,Sí,No,Sí,,POINT (2.02562548 41.56668167)
Selva,Caldes de Malavella,170335,Sí,41.83899472,2.80945001,Sala polivalent,Sala Cavallerisses (Ajuntament de Caldes de Malavella),"Pl. de l'Ajuntament, 20",972470005,NA,"dl., dt., dc. i dv. 08:30 - 14:30 | dj. 08:30 - 14:30 i 16:00 - 18:30",Sí,Sí,Sí,Sí,Sí,,POINT (2.80945001 41.83899472)
Maresme,Alella,080039,Sí,41.49332515,2.2948243,Biblioteca,Biblioteca Ferrer i Guàrdia,"C. Hort de la Rectoria, s/n",935559055,NA,dl. a dj. 15:00 - 20:00 | dv. 10:00 - 13:30 i 15:00 - 20:00,Sí,Sí,Sí,Sí,Sí,30,POINT (2.2948243 41.49332515)
Barcelonès,Barcelona,080193,Sí,41.37781648,2.14087975,Parc densament arbrat,Parc Espanya Industrial,"C. de Muntadas, 1",NA,NA,dl. a dv. 10:00 - 22:30 | ds. 10:00 - 22:30 | dg. 10:00 - 22:30,Sí,Sí,Sí,No,Sí,,POINT (2.14087975 41.37781648)
Vallès Occidental,Terrassa,082798,Sí,41.57369309,2.0365246,Parc densament arbrat,Plaça Federico Garcia Lorca,"C. de Talamanca, 35",NA,NA,Indefinit,Sí,Sí,No,No,Sí,,POINT (2.0365246 41.57369309)
Barcelonès,Barcelona,080193,Sí,41.40156094,2.111093,Piscina,Piscines del Centre Esportiu Municipal Can Caralleu,"C. dels Esports, 2-8",NA,cancaralleu@cemcancaralleu.cat,Juliol i Setembre: dl. a dv. 06:45 - 22:00 | ds. 08:00 - 20:00 | dg. 08:30 - 18:00 || Agost: dl. a dv. 08:00 - 21:00 | ds. 08:00 - 20:00 | dg. 09:00 - 18:00,No,Sí,NA,NA,NA,,POINT (2.111093 41.40156094)
Baix Llobregat,Santa Coloma de Cervelló,082444,Sí,41.36875244,2.02772415,Equipament cívic,Casal de la gent gran de la Colònia Güell,"C. Claudi Güell, 3",936450700,scc.ajuntament@santacolomadecervello.cat,Indefinit,Sí,Sí,No,Sí,Sí,25,POINT (2.02772415 41.36875244)
Garrotxa,Olot,171143,Sí,42.18104521,2.49724857,Parc densament arbrat,Parc de les bisaroques,"Av. Sant Jordi, 48",NA,NA,Indefinit,Sí,Sí,Sí,No,Sí,,POINT (2.49724857 42.18104521)
Vallès Oriental,Llinars del Vallès,08450,Sí,41.6375444,2.3907059,Equipament cívic,Casal Cívic i Comunitari Llinars del vallès,C. Ramon y Cajal - Av. de Granollers,938413640,cc.llinars@gencat.cat,dl. a dv. 09:00 - 21:00 | dg. 16:00 - 21:00,Sí,Sí,Sí,Sí,Sí,167,POINT (2.3907059 41.6375444)
Baix Ebre,Deltebre,439018,Sí,40.72123953,0.72165573,Biblioteca,Biblioteca Delta de l'Ebre,Av. 1 d'octubre,977489925,NA,10:00 - 13:00 i 16:00 - 20:00,Sí,Sí,Sí,Sí,Sí,,POINT (0.72165573 40.72123953)
Anoia,Vilanova del Camí,083020,Sí,41.57268172,1.63946252,Altres,Casal de la gent gran,"C. Sant Josep, 36",938054422,Ajvnvc.gentgran@vilanovadelcami.cat,Indefinit,Sí,Sí,No,Sí,Sí,113,POINT (1.63946252 41.57268172)
Barcelonès,Barcelona,080193,Sí,41.3998479,2.12151986,Altres,Parròquia de Sant Vicenç de Sarrià,"Pl. Sarrià, 10",NA,santvicenc@parroquiasarria.net,dl. a dv. 09:00 - 20:00 | ds. 11:00 - 14:00,Sí,Sí,No,Sí,Sí,,POINT (2.12151986 41.3998479)
Baix Ebre,Tortosa,43500,Sí,40.81469398,0.51671331,Equipament cívic,Casal Cívic i Comunitari Tortosa,"C. Alfara de Carles, 27-33",977502300,cc.tortosa@gencat.cat,dl. a dv. 09:00 - 21:00 | dg. 10:00 - 21:00,Sí,Sí,Sí,Sí,Sí,100,POINT (0.51671331 40.81469398)
Bages,Castellfollit del Boix,080594,Sí,41.66678253,1.68320373,Sala polivalent,Edifici ajuntament,"Pl. Ajuntament, s/n,  08255 Castellfollit del Boix",938356033,castellfollitb@castellfollitdelboix.cat,Indefinit,Sí,Sí,Sí,Sí,Sí,40,POINT (1.68320373 41.66678253)
Noguera,Preixens,251771,Sí,41.79369058,1.0485752,Sala polivalent,Lo Cabildo,"C.Sant Joan, 10",NA,NA,Indefinit,Sí,Sí,Sí,Sí,Sí,100,POINT (1.0485752 41.79369058)
Vallès Occidental,Terrassa,08227,Sí,41.5797875,2.0263177,Equipament cívic,Casal Cívic i Comunitari Terrassa - Sant llorenç,"Camí Font de les Canyes, 15",937318130,cc.terrassasantllorenç@gencat.cat (Pendent tramitar),dl. a dv. 15:00 - 21:30,Sí,Sí,Sí,Sí,Sí,77,POINT (2.0263177 41.5797875)
Barcelonès,Barcelona,080193,Sí,41.38691402,2.14903699,Equipament cívic,Espai de gent gran Esquerra de l'Eixample,"Rosselló, 78-80",NA,esquerra@gentgraneixample.cat,Juliol i Setembre: dl. a dv. 09:15 - 13:15 i 16:30 - 19:30 || Agost: Tancat,Sí,Sí,Sí,Sí,Sí,,POINT (2.14903699 41.38691402)
Garrotxa,Olot,171143,Sí,42.1650696,2.47760583,Parc densament arbrat,Plaça de Bonavista,Pl. de Bonavista,NA,NA,Indefinit,Sí,Sí,Sí,No,Sí,,POINT (2.47760583 42.1650696)
Barcelonès,Barcelona,080193,Sí,41.43809832,2.20518693,Equipament cívic,Casal de gent gran Bon Pastor,"C. Ardevol, s/n",NA,cggbonpastor@gmail.com,Juliol: dl. a dv. 09:30 - 13:00 i 16:00 - 19:30 || Agost: dl. a dv. 16:00 - 20:00 || Setembre: dl. a dv. 09:30 - 13:00 i 16:00 - 19:30 | ds. 10:00 - 13:00 i 16:00 - 19:30,Sí,No,Sí,NA,Sí,,POINT (2.20518693 41.43809832)
Vallès Occidental,Terrassa,082798,Sí,41.55461375,2.00243426,Altres,Equipament socioesportiu La Cogullada,"Av. de Joaquim de Sagrera, 15",666160877,NA,09:00 - 11:00 i 16:30 - 20:30 || Agost tancat,Sí,Sí,Sí,Sí,Sí,,POINT (2.00243426 41.55461375)
Vallès Occidental,Montcada i Reixac,08110,Sí,41.4885174,2.1841403,Equipament cívic,Casal Cívic i Comunitari Montcada i Reixac,"Rbla. dels Països Catalans, s/n",935646061,cc.montcadaireixac@gencat.cat,dl. a dv. 09:00 - 21:00 | ds. 10:00 - 21:00,Sí,Sí,Sí,Sí,Sí,150,POINT (2.1841403 41.4885174)
Garrotxa,Argelaguer,170101,No,,,NA,NA,NA,NA,NA,NA,NA,NA,NA,NA,NA,,
Barcelonès,Barcelona,080193,Sí,41.40899169,2.16641331,Centre educatiu,Escola de les Aigües,"C. Sardenya, 420 (entrada per C.Taxdirt)",NA,escoladelesaigues@xtec.cat,Juliol i Setembre: Tancat || Agost: dl. a dv. 17:30 - 20:30 | ds. 17:30 - 20:30 | dg. 17:30 - 20:30,Sí,NA,Sí,NA,NA,,POINT (2.16641331 41.40899169)
Alt Camp,Valls,431613,Sí,41.28917615,1.25705824,Parc densament arbrat,Parc Barrau,C. Francesc Macià,NA,NA,Indefinit,Sí,Sí,Sí,No,Sí,,POINT (1.25705824 41.28917615)
Priorat,Ulldemolins,431573,Sí,41.32147278,0.87631266,Equipament cívic,Centre cívic,"C. de la Saltadora, 26, 43363 Ulldemolins, Tarragona",NA,ajuntament@ulldemolins.cat,Indefinit,Sí,Sí,Sí,Sí,Sí,200,POINT (0.87631266 41.32147278)
Vallès Occidental,Terrassa,082798,Sí,41.57095518,2.03889924,Piscina,Piscina municipal de Les Arenes,"C. Tibidabo, 60",937316786,NA,10:10 - 14:30 i 15:30 - 19:30,No,Sí,Sí,Sí,Sí,300,POINT (2.03889924 41.57095518)
Pallars Jussà,Isona i Conca Dellà,251155,Sí,42.12146777,1.05141003,Piscina,Piscina municipal d'Isona i Conca Dellà,"C. de Sant Vicenç, 81, Isona",973664008,ajuntament@isona.ddl.net,10:00 - 20:00,No,Sí,No,Sí,Sí,,POINT (1.05141003 42.12146777)
Baix Camp,Reus,431233,Sí,41.15297592,1.09486974,Parc densament arbrat,Parc del Carrer de Romaní,"C. del Romaní, 21, 43206 Reus, Tarragona",NA,NA,Indefinit,Sí,Sí,Sí,No,Sí,,POINT (1.09486974 41.15297592)
Barcelonès,Barcelona,080193,Sí,41.40725371,2.17931421,Piscina,Piscines del Centre Esportiu Municipal Sagrada Família,"C. Cartagena, 231-239",NA,cartagena@claror.cat,Juliol: dl. a dv. 07:00 - 23:00 | ds. 08:00 - 15:00 i 17:00 - 20:00 | dg. 09:00 - 15:30 || Agost: dl. a dv. 07:00 - 23:00 | ds. 09:00 - 15:00 || Setembre: Indefinit,No,Sí,NA,NA,NA,,POINT (2.17931421 41.40725371)
Bages,Manresa,081136,Sí,41.72358836,1.82745709,Altres,Oficina de turisme,"Pl. Major, 10",938784090,turisme@manresaturisme.cat,Indefinit,Sí,Sí,Sí,Sí,Sí,5,POINT (1.82745709 41.72358836)
Barcelonès,Barcelona,080193,Sí,41.41088475,2.13549421,Parc densament arbrat,Jardins de la Tamarita,"Pg. Sant Gervasi, 47-49",NA,NA,dl. a dv. 10:00 - 22:30 | ds. 10:00 - 22:30 | dg. 10:00 - 22:30,Sí,Sí,NA,No,NA,,POINT (2.13549421 41.41088475)
Baix Llobregat,Sant Andreu de la Barca,081960,Sí,41.44726686,1.97463889,Equipament cívic,Centre de recursos associatius,"Pl. Anselm Clavé, 12",NA,NA,17:00 - 20:00,Sí,Sí,Sí,Sí,Sí,20,POINT (1.97463889 41.44726686)
Vallès Occidental,Barberà del Vallès,082520,Sí,41.52111969,2.12108065,Biblioteca,Biblioteca Esteve Paluzie,"Pl. Constitució, s/n",937297171,barbera@bdv.cat,"dl., dt. i dc. 15:30 - 20:00 | dj. i dv. 10:00 - 14:00",Sí,Sí,Sí,Sí,Sí,175,POINT (2.12108065 41.52111969)
Barcelonès,Badalona,08914,Sí,41.4469345,2.2193172,Equipament cívic,Casal Cívic i Comunitari Badalona - Salut alta,"C. de Pau Piferrer, 109",934602814,cc.salutalta@gencat.cat,Juliol: 09:00 - 15:00  || Agost: dl. a dv. 09:00 - 14:00 i 15:00 - 21:00,Sí,Sí,Sí,Sí,Sí,38,POINT (2.2193172 41.4469345)
Moianès,Castellterçol,080641,Sí,41.75132341,2.11971074,Altres,Jardins 1 D'octubre,Pl. Prat de la Riba,NA,NA,Indefinit,Sí,Sí,Sí,No,Sí,,POINT (2.11971074 41.75132341)
Gironès,Sarrià de Ter,171864,Sí,42.01091,2.49194,Biblioteca,Biblioteca Emília Xargay,"Pl. Catalunya, 1",9721172401,biblioteca@sarriadeter.cat,"dl. i dj. 09:00 - 13:00 i  15:30 - 19:30 | dt., dc. i dv. 09:30 - 13:00",Sí,Sí,Sí,Sí,Sí,,POINT (2.49194 42.01091)
Baix Ebre,Roquetes,431331,Sí,40.81996071,0.4953293,Biblioteca,Biblioteca Mercè Lleixà,Urb. Torre d'en Gil,680112445,biblioteca@roquetes.cat,dl. a dv. 09:00 - 13:30 || Agost tancat,Sí,Sí,Sí,Sí,Sí,,POINT (0.4953293 40.81996071)
Barcelonès,Barcelona,080193,Sí,41.37289931,2.13666487,Sala polivalent,La Lleialtat Santsenca,"C. d'Olzinelles, 31",NA,info@lleialtat.cat,Juliol i Setembre: dl. a dv. 10:00 - 21:00 | ds. 10:00 - 14:00 i 16:00 - 21:00 || Agost: dl. a dv. 10:00 - 21:00 | fins el 21 d'agost | ds. 10:00 - 14:00 i 16:00 - 21:00 | Tancat fins el 21 d'agost,Sí,Sí,Sí,Sí,Sí,,POINT (2.13666487 41.37289931)
Bages,Manresa,081136,Sí,41.7145811,1.82817842,Altres,Associació de veïns del barri de Sant Pau,"C. Cardener, 12 -14",938750114,avvsantpau@hotmail.com,Indefinit,Sí,Sí,Sí,Sí,Sí,20,POINT (1.82817842 41.7145811)
Vallès Occidental,Sabadell,081878,Sí,41.57863348,2.08535625,Equipament cívic,Centre cívic Can Deu,"C. Portal de la Floresta, 24, 08207 Sabadell, Barcelona",937169752,ccivics@ajsabadell.cat,09:00 - 14:00 i 15:30 - 21:00,Sí,Sí,No,Sí,Sí,,POINT (2.08535625 41.57863348)
Segarra,Sanaüja,251919,Sí,41.87578406,1.30957784,Altres,Ajuntament,"C. Bassal, 4",973476008,ajuntament@sanauja.org,11:00 - 14:00,Sí,No,No,No,Sí,10,POINT (1.30957784 41.87578406)
Barcelonès,Santa Coloma de Gramenet,082457,Sí,41.44995892,2.20354293,Equipament cívic,La Ciba,"Pg. de Llorenç Serra, 64, 08921 Santa Coloma de Gramenet, Barcelona",934624092,morgj@gramenet.cat,08:00 - 20:00,Sí,Sí,Sí,Sí,Sí,300,POINT (2.20354293 41.44995892)
Segrià,Almenar,250215,Sí,41.79293188,0.57391037,Parc densament arbrat,Parc Màgic d'Almenar,"C. Pont de l'Almúnia, 1",973770013,ajuntament@almenar.cat,08:00 - 21:00,Sí,Sí,Sí,Sí,Sí,150,POINT (0.57391037 41.79293188)
Barcelonès,Barcelona,080193,Sí,41.38418355,2.17680507,Espai cultural,Museu Frederic Marès,"Pl. Sant Iu, 5-6",NA,museumares@bcn.cat,dt. a dg. 10:00 - 19:00,Sí,Sí,No,Sí,Sí,,POINT (2.17680507 41.38418355)
Barcelonès,Barcelona,080193,Sí,41.43710539,2.15637551,Centre educatiu,Escola Bressol Municipal Valldaura,"Pg. Valldaura, 18",NA,ebmvalldaura@bcn.cat,Juliol i Agost: Tancat | ds. 10:30 - 13:00 || Setembre: Tancat | Fins el 14: ds. 10:30 - 13:00,Sí,Sí,Sí,NA,Sí,,POINT (2.15637551 41.43710539)
Vallès Oriental,Llinars del Vallès,081069,Sí,41.63985272,2.40252967,Parc densament arbrat,La Devesa de l'Àrea Central,"Av. Pau Casals, 4",938412750,territori@llinarsdelvalles.cat,07:00 - 23:00,Sí,Sí,Sí,No,Sí,340,POINT (2.40252967 41.63985272)
Barcelonès,Barcelona,080193,Sí,41.40869089,2.17884574,Parc densament arbrat,Jardins de Montserrat Roig,"C. del Rosselló, 488",NA,NA,dl. a dv. 10:00 - 22:00 | ds. 10:00 - 22:00 | dg. 10:00 - 22:00,Sí,NA,Sí,No,NA,,POINT (2.17884574 41.40869089)
Vallès Occidental,Castellar del Vallès,080517,Sí,41.61145983,2.0915889,Equipament cívic,Casal Catalunya,"C. Prat de la Riba, 17",937158998,gentgran@casstellarvalles.cat,10:00 - 13:00 i 15:00 - 19:00,Sí,Sí,Sí,Sí,Sí,80,POINT (2.0915889 41.61145983)
Anoia,Vilanova del Camí,083020,Sí,41.57246534,1.65660375,Altres,Centre d'innovació Anoia,"C. dels impressors, 12, Vilanova del Camí",938054411,peconomica@vilanovadelcami.cat,08:00 - 14:00,Sí,Sí,Sí,Sí,Sí,6,POINT (1.65660375 41.57246534)
Solsonès,Solsona,25280,Sí,41.9943696,1.5106318,Equipament cívic,Casal Cívic i Comunitari Solsona,"C. d'Antoni Gaudí, 2-A (ctda. Pg. Sant Antoni Maria Claret)",973306853,solsona.casal@gencat.cat,dl. a dv. 09:00 - 14:00 i 15:00 - 21:00 | ds. 16:00 - 21:00 || Agost tancat,Sí,Sí,Sí,Sí,Sí,309,POINT (1.5106318 41.9943696)
Baix Llobregat,Sant Andreu de la Barca,081960,Sí,41.44991573,1.96571351,Altres,Cap Sant Andreu de la Barca,"Av. Constitució, 37",NA,NA,dl. a dv. 08:00 - 20:00,Sí,Sí,Sí,Sí,Sí,20,POINT (1.96571351 41.44991573)
Vallès Occidental,Santa Perpètua de Mogoda,082606,Sí,41.52794613,2.18026977,Parc densament arbrat,Parc de Catalunya,"C. de Josep Carner, 32, 08130 Santa Perpètua de Mogoda",NA,NA,Indefinit,Sí,Sí,Sí,No,Sí,,POINT (2.18026977 41.52794613)
Anoia,"Pobla de Claramunt, la",081653,Sí,41.55441419,1.6754238,Biblioteca,Biblioteca Mossen Cinto Verdaguer,"Av. Catalunya, 9",938088445,biblioclaramunt@diba.cat,16:00 - 20:00,Sí,Sí,Sí,Sí,Sí,60,POINT (1.6754238 41.55441419)
Alta Ribagorça,"Vall de Boí, la",250432,Sí,42.502863,0.797085,Piscina,Piscines municipals de Barruera,C. Del Eiu,973694018,ajuntament@valldeboi.cat,Indefinit,No,No,Sí,Sí,Sí,50,POINT (0.797085 42.502863)
Garraf,Vilanova i la Geltrú,083073,Sí,41.22203249,1.71463179,Biblioteca,Biblioteca Armand Cardona,"C. Menendez Pelayo, 15-17",NA,NA,10:00 - 14:00 i 16:00 - 20:00,Sí,Sí,Sí,Sí,Sí,110,POINT (1.71463179 41.22203249)
Baix Camp,Vandellòs i l'Hospitalet de l'Infant,431628,Sí,40.99181398,0.91374927,Piscina,Piscina Hospitalet de L'Infant,"C. de la Porrassa, 17",977820523,info@vandellos-hospitalet.cat,08:00 - 22:00,Sí,Sí,Sí,Sí,Sí,100,POINT (0.91374927 40.99181398)
Barcelonès,Barcelona,080193,Sí,41.38381119,2.12985716,Altres,Mercat de Les Corts,"Trav. de les Corts, 215",NA,NA,Juliol i Setembre: dl. a dj. 08:00 - 14:00 | dv. 08:00 - 19:30 | ds. 08:00 - 14:30 || Agost: Tancat,Sí,Sí,Sí,No,Sí,,POINT (2.12985716 41.38381119)
Barcelonès,Barcelona,080193,Sí,41.41511563,2.17358715,Altres,Hospital de Sant Pau,"C. Sant Quintí, 89",NA,atenciousuari@santpau.cat,dl. a dv. 06:00 - 22:00 | ds. 06:30 - 22:00 | dg. 06:30 - 22:00,Sí,Sí,Sí,Sí,Sí,,POINT (2.17358715 41.41511563)
Vallès Occidental,Rubí,081846,Sí,41.49511648,2.0391695,Parc densament arbrat,Plaça de les Moreres,"C. Mallorca, s/n",NA,NA,Indefinit,Sí,Sí,Sí,No,Sí,,POINT (2.0391695 41.49511648)
Vallès Oriental,Canovelles,08420,Sí,41.61821,2.2789029,Equipament cívic,Casal Cívic i Comunitari Canovelles - Can Palots,C. Sant Jordi - ctda. Pg. de Lluís Companys,938491301,cc.canovellescanpalots@gencat.cat,dl. a dv. 09:00 - 21:00 | ds. 10:00 - 21:00,Sí,Sí,Sí,Sí,Sí,237,POINT (2.2789029 41.61821)
Segrià,Lleida,251207,Sí,41.63632961,0.62975604,Altres,Centre sènior Secà Sant Pere,"Pl. Sant Pere, 3",973243353,NA,09:30 - 12:30,Sí,Sí,Sí,Sí,Sí,,POINT (0.62975604 41.63632961)
Barcelonès,Barcelona,080193,Sí,41.42320722,2.15857715,Poliesportiu,CEM El Carmel,C. Pedrell,NA,cccarmel@bcn.cat,dl. a dv. 07:00 - 22:00 | ds. 09:00 - 14:30 | dg. 09:00 - 14:30,Sí,Sí,No,Sí,Sí,,POINT (2.15857715 41.42320722)
Osona,Seva,082690,Sí,41.83459075,2.27382264,Piscina,Els Roures Parc,"Ctra. de Viladrau, s/n, 08553 Seva, Barcelona",NA,seva@seva.cat,10:30 - 19:00,No,Sí,No,Sí,Sí,500,POINT (2.27382264 41.83459075)
Alt Empordà,Figueres,17600,Sí,42.2642114,2.9448596,Equipament cívic,Casal Cívic i Comunitari Figueres - Bon Pastor,"C. del Doctor Barraquer, 1",972 674249,cc.bonpastor@gencat.cat,dl. a dv. 09:00 - 21:00,Sí,Sí,Sí,Sí,Sí,69,POINT (2.9448596 42.2642114)
Baix Camp,Reus,431233,Sí,41.14657027,1.11009157,Parc densament arbrat,Plaça Europa,"Pl. d'Europa, 43205 Reus, Tarragona",NA,NA,Indefinit,Sí,Sí,Sí,No,Sí,,POINT (1.11009157 41.14657027)
Barcelonès,Barcelona,080193,Sí,41.41008054,2.15698885,Equipament cívic,Casal de barri Cardener,"C. Cardener, 45",NA,associaciocardener@gmail.com,Juliol: dl. a dj. 10:00 - 13:00 i 16:00 - 20:00 | dv. 10:00 - 13:00 i 16:00 - 18:00 || Agost: Tancat || Setembre: dl. a dv. 10:00 - 13:00 i 16:00 - 20:00,Sí,NA,NA,Sí,NA,,POINT (2.15698885 41.41008054)
Osona,Vic,082981,Sí,41.92226414,2.26095224,Parc densament arbrat,Parc de l’Horta Vermella,Parc de l’Horta Vermella,938862100,NA,Indefinit,Sí,Sí,Sí,No,Sí,,POINT (2.26095224 41.92226414)
Barcelonès,Badalona,080155,Sí,41.45016419,2.23058722,Biblioteca,Biblioteca de Lloreda,"Av. Catalunya, 56-62",933873175,NA,Indefinit,Sí,Sí,No,Sí,Sí,123,POINT (2.23058722 41.45016419)
Vallès Oriental,Parets del Vallès,081593,Sí,41.57529604,2.2331026,Parc densament arbrat,Parc de La Linera,"Pg. Joan Miró, 7, 08150 Parets del Vallès",935738888,parets@parets.cat,Indefinit,Sí,Sí,Sí,Sí,Sí,5000,POINT (2.2331026 41.57529604)
Terra Alta,Horta de Sant Joan,430712,No,,,NA,NA,NA,NA,NA,NA,NA,NA,NA,NA,NA,,
Vallès Oriental,Lliçà de Vall,081081,Sí,41.58543728,2.23910584,Equipament cívic,Casal de joves El Kaliu,"Pg. de l'Església, 1",938608897,lldv.joventut@llissadevall.cat,16:00 - 20:30,Sí,Sí,Sí,Sí,Sí,40,POINT (2.23910584 41.58543728)
Vallès Occidental,Sabadell,081878,Sí,41.53023744,2.11965094,Biblioteca,Biblioteca Sud,"Pg. dels Almogàvers, 49",937205174,NA,15:30 - 20:30,Sí,Sí,No,Sí,Sí,,POINT (2.11965094 41.53023744)
Baix Empordà,Torroella de Montgrí,171997,Sí,42.05489127,3.20142155,Altres,Emd,"C. del Port, 25, 17258 L'Estartit, Girona",NA,NA,Indefinit,Sí,Sí,Sí,Sí,Sí,,POINT (3.20142155 42.05489127)
Barcelonès,"Hospitalet de Llobregat, l'",081017,Sí,41.36025307,2.11772894,Poliesportiu,Poliesportiu municipal Gornal,"C. de Can Trias, 20",934036965,infopmg@l-h.cat,Indefinit,Sí,Sí,Sí,Sí,Sí,,POINT (2.11772894 41.36025307)
Vallès Occidental,Castellar del Vallès,080517,Sí,41.62169259,2.06878386,Piscina,Piscina municipal Casino del Racó,"C. Brutau, 19",937143639,NA,09:00-14:00 i 16:00-22:00,No,Sí,Sí,Sí,Sí,40,POINT (2.06878386 41.62169259)
Segrià,Lleida,251207,Sí,41.62774314,0.62631271,Equipament cívic,Centre cívic Balàfia,"C. Terrassa, 1",973700655,NA,09:30 - 13:30 i 16:30 - 19:30,Sí,Sí,Sí,Sí,Sí,50,POINT (0.62631271 41.62774314)
Barcelonès,Barcelona,080193,Sí,41.42974749,2.14547205,Piscina,Piscina del Centre Municipal Tennis Vall Hebron,"Pg. Vall d'Hebron, 178-196",NA,vallhebron@uesports.cat,dl. a dv. 10:00 - 20:00 | ds. 10:00 - 19:00 | dg. 10:00 - 19:00,No,Sí,NA,NA,NA,,POINT (2.14547205 41.42974749)
Barcelonès,Barcelona,080193,Sí,41.38649127,2.17617555,Biblioteca,Biblioteca Francesca Bonnemaison,"Sant Pere més Baix, 7",NA,b.barcelona.fb@diba.cat,"dt. i dv. 09:30 - 13:30 | dl., dt., dj. I dv. 15:00 - 20:00 | dc. 09:30 - 20:00",Sí,Sí,No,Sí,Sí,,POINT (2.17617555 41.38649127)
Tarragonès,Tarragona,43005,Sí,41.1135871,1.2411954,Equipament cívic,Casal Cívic i Comunitari Tarragona,"C. d'en Francesc Bastos, 19",977249492,cm.tarragona@gencat.cat,dl. a dv. 09:00 - 21:00,Sí,Sí,Sí,Sí,Sí,92,POINT (1.2411954 41.1135871)
Moianès,Castellterçol,080641,Sí,41.74967913,2.12013094,Equipament cívic,Edifici del Bosquet De Can Sedó,"C. Rocacorba, s/n (dins del Bosquet de Can Sedó)",938666612,NA,dl. a dv. 17:00 - 20:00,Sí,Sí,Sí,Sí,Sí,,POINT (2.12013094 41.74967913)
Anoia,"Torre de Claramunt, la",082861,Sí,41.53412739,1.65924413,Equipament cívic,Centre social St Joan Baptista,"C. Piscina, s/n",938013456,torre@latorredeclaramunt.cat,15:00 - 20:00,Sí,Sí,No,Sí,Sí,120,POINT (1.65924413 41.53412739)
Barcelonès,Barcelona,080193,Sí,41.37691981,2.16725115,Equipament cívic,Casal de gent gran Josep Trueta,"Reina Amàlia, 31",NA,trueta@esport3.org,Agost i Setembre: dl. a dv. 10:00 - 12:30 i 15:00 - 19:30 | ds. 10:00 -12:30 i 15:00 - 19:30 | dg. 10:00 - 12:30 i 15:00 - 19:30 || Juliol: dl. a dv. 10:00 - 12:30 i 15:00 - 19:30 | ds. 10:00 - 12:30 i 15:00 - 19:30 | dg. 10:00 - 12:30 i 15:00 - 19:30,Sí,Sí,Sí,Sí,Sí,,POINT (2.16725115 41.37691981)
Barcelonès,Barcelona,080193,Sí,41.39905755,2.17298054,Parc densament arbrat,Jardins Constança d'Aragó,"C. Roger de Flor, 194",NA,NA,dl. a dv. 10:00 - 22:00 | ds. 10:00 - 22:00 | dg. 10:00 - 22:00,Sí,NA,Sí,No,NA,,POINT (2.17298054 41.39905755)
Vallès Occidental,Terrassa,082798,Sí,41.57093642,2.01341854,Parc densament arbrat,Parc del Nord,Parc del Nord,NA,NA,Indefinit,Sí,Sí,Sí,No,Sí,,POINT (2.01341854 41.57093642)
Barcelonès,Barcelona,080193,Sí,41.38635702,2.17816109,Altres,Mercat de Santa Caterina,"Av. Francesc Cambó, 16",NA,NA,"Juliol i Setembre: dl. i dc. 07:30 - 15:30 | dt., dj. i dv. 07:30 - 20:30 | ds. 07:30 - 15:30 || Agost: Tancat",Sí,Sí,Sí,Sí,Sí,,POINT (2.17816109 41.38635702)
Garrotxa,Olot,171143,Sí,42.16343416,2.47687927,Equipament cívic,Casal de Bonavista,"C. Viola, 24",NA,NA,dl. a ds. 14:00 - 18:00,No,Sí,No,Sí,Sí,,POINT (2.47687927 42.16343416)
Priorat,Falset,430555,Sí,41.143924,0.822558,Parc densament arbrat,Plaça de la Nevera,C. Francesc Rispa i Perpinyà,NA,NA,Indefinit,Sí,Sí,No,No,Sí,,POINT (0.822558 41.143924)
Maresme,Mataró,08302,Sí,41.5406137,2.4385658,Equipament cívic,Casal Cívic i Comunitari Mataró - Jaume Terradas,"C. d'Argentona, 59-61",937989957,cc.mataro@gencat.cat,dl. a dv. 09:00 - 21:00 | dg. 10:00 - 13:30 i 15:30 - 21:00,Sí,Sí,Sí,Sí,Sí,132,POINT (2.4385658 41.5406137)
Alt Empordà,Llançà,170926,Sí,42.36251702,3.15353688,Altres,Edifici de serveis,"C. La Selva, 17-19",972381313,policia@llanca.cat,Indefinit,Sí,Sí,Sí,Sí,Sí,,POINT (3.15353688 42.36251702)
Vallès Occidental,Terrassa,082798,Sí,41.56333652,2.0169851,Parc densament arbrat,Plaça Doctor Robert i Passeig Comte d'Egara,Pl. Doctor Robert,NA,NA,Indefinit,Sí,Sí,Sí,No,Sí,,POINT (2.0169851 41.56333652)
Tarragonès,Tarragona,431482,Sí,41.11978362,1.24698313,Espai cultural,Espai Jove KESSE,"C. Sant Antoni Maria Claret, 12-14",977296251,ajuntament@tarragona.cat,16:30 - 20:30,Sí,Sí,Sí,Sí,Sí,10,POINT (1.24698313 41.11978362)
Ripollès,Molló,171077,Sí,42.34553476,2.40451678,Piscina,Piscina municipal de Molló,"Ptge. del Serrat, 3",972740387,NA,Indefinit,No,Sí,Sí,Sí,Sí,,POINT (2.40451678 42.34553476)
Baix Llobregat,Sant Boi de Llobregat,082009,Sí,41.35245004,2.02367147,Parc densament arbrat,Parc de Marianao,"C. Lledoners, 1",NA,NA,09:00 - 22:00,Sí,No,Sí,No,No,,POINT (2.02367147 41.35245004)
Barcelonès,Barcelona,080193,Sí,41.39335135,2.18357601,Parc densament arbrat,Parc de l'Estació del Nord,"C. de Nàpols, 70",NA,NA,dl. a dv. 10:00 - 22:30 | ds. 10:00 - 22:30 | dg. 10:00 - 22:30,Sí,Sí,NA,Sí,NA,,POINT (2.18357601 41.39335135)
Vallès Occidental,Rubí,081846,Sí,41.48796776,2.02908438,Parc densament arbrat,Plaça de Pep Rovira,Pl. de Pep Rovira,NA,NA,Indefinit,Sí,Sí,Sí,No,Sí,,POINT (2.02908438 41.48796776)
Tarragonès,"Canonja, la",439076,Sí,41.1203806,1.1804432,Sala polivalent,ÈPOCA (Espai polivalent de la Canonja),"Rbla. 15 d'Abril, 43110 la Canonja",877008949,epoca@lacanonja.cat,dl. a dv. 09:00 - 13:00 i 15:30 - 19:00,Sí,Sí,Sí,Sí,Sí,200,POINT (1.1804432 41.1203806)
Aran,"Bòrdes, Es",250576,Sí,42.73751618,0.71966274,Poliesportiu,Poliesportiu,Pl. de l'esglesia,NA,NA,Indefinit,Sí,Sí,Sí,Sí,Sí,150,POINT (0.71966274 42.73751618)
Baix Llobregat,Sant Just Desvern,082212,Sí,41.38723126,2.0758695,Biblioteca,Biblioteca Joan Margarit,"C. Carles Mercader, 17",934756300,ajuntament@santjust.cat,Indefinit,Sí,Sí,Sí,Sí,Sí,298,POINT (2.0758695 41.38723126)
Maresme,Dosrius,080752,Sí,41.60415043,2.45435641,Parc densament arbrat,Entorn del Pou de Glaç de Canyamars,Pou de Glaç de Canyamars,NA,NA,Indefinit,Sí,Sí,No,No,No,,POINT (2.45435641 41.60415043)
Barcelonès,Barcelona,080193,Sí,41.37845784,2.15098271,Piscina,Piscines del Centre Esportiu Municipal Joan Miró,"C. Diputació, 17-19",934234350,NA,Juliol: dl. a dv. 07:00 - 23:00 | ds. 08:00 - 21:00 | dg. 09:00 - 15:00 || Agost: dl. a dv. 07:00 - 23:00 | ds. 08:00 - 20:00 | dg. 09:00 - 15:00 || Setembre: Indefinit,No,Sí,NA,NA,NA,,POINT (2.15098271 41.37845784)
Baix Empordà,Vilopriu,172327,Sí,42.14912006,2.9895998,Piscina,Piscina municipal de Vilopriu,"Zona esportiva, s/n, 17466 Vilopriu",623314498,eltolldevilopriu@gmail.com,10:00 - 17:30,No,Sí,Sí,Sí,Sí,100,POINT (2.9895998 42.14912006)
Anoia,Castellfollit de Riubregós,080608,Sí,41.77407637,1.43682395,Piscina,Piscina municipal,C. Escorrals,938693031,castellfollitr@diba.cat,11:00 - 20:00,No,Sí,Sí,Sí,Sí,,POINT (1.43682395 41.77407637)
Barcelonès,Barcelona,080193,Sí,41.38352946,2.11583859,Biblioteca,Biblioteca de la Facultat de Matemàtiques i Estadística (UPC),"C. Pau Gargallo, 14",NA,biblioteca.fme@upc.edu,Juliol: dl.a dv.  09:00 - 14:00 || Agost: Tancat || Setembre: Del 2-6: dl. a dv. 09:00 - 14:00 | Després: dl. a dj. 09:00 - 20:00 | dv. 09:00 - 14:00,Sí,Sí,Sí,Sí,Sí,,POINT (2.11583859 41.38352946)
Baix Llobregat,Collbató,080692,Sí,41.56616654,1.82452484,Piscina,Piscina municipal,"Av. Centenari Amadeu Vives, 38",NA,clbt.esports@collbato.cat,11:00 - 19:30,No,Sí,Sí,Sí,Sí,659,POINT (1.82452484 41.56616654)
Garrigues,Vinaixa,252555,Sí,41.4293627,0.97077472,Piscina,Piscina,"Trav. Escoles, s/n",973175722,administracio@vinaixa.cat,11:00 - 20:00,Sí,Sí,Sí,Sí,Sí,1500,POINT (0.97077472 41.4293627)
Vallès Occidental,Rubí,081846,Sí,41.48354,2.02885,Parc densament arbrat,Torrent de les Abelles,C. Luxemburg - Pg. de la Riera,NA,NA,Indefinit,Sí,Sí,Sí,No,Sí,,POINT (2.02885 41.48354)
Maresme,Argentona,080095,Sí,41.53163845,2.41908219,Equipament cívic,Casal de la gent gran,"Local 6, Baixos Bloc 4 (Pl. Sant Miquel del Cros)",NA,NA,dl. a dv. 10:00 - 13:00,Sí,Sí,No,Sí,Sí,15,POINT (2.41908219 41.53163845)
Anoia,"Prats de Rei, els",081705,Sí,41.70619125,1.5417927,Equipament cívic,Espai del Cafè de les Persones Grans i Sala de Tallers,"C. Ravalet, 31",NA,pratsr@pratsderei.cat,Indefinit,Sí,Sí,No,Sí,Sí,25,POINT (1.5417927 41.70619125)
Alt Camp,Bràfim,430347,Sí,41.26791774,1.33972879,Equipament cívic,Centre cívic El Centru,"Av. Catalunya, 30",NA,NA,08:00 - 22:00,Sí,Sí,No,Sí,No,100,POINT (1.33972879 41.26791774)
Maresme,"Masnou, el",081189,Sí,41.47985316,2.31930974,Equipament cívic,Casal de gent gran de Can Malet,"C. Sant Felip, 2",NA,NA,dl. a dv. 10:00 - 12:30 i 16:30 - 19:30 | dg. 10:00 - 12:30,Sí,Sí,Sí,Sí,Sí,,POINT (2.31930974 41.47985316)
Osona,Gurb,081000,Sí,41.94011202,2.24386005,Altres,Casal de la gent gran,"Mas l'Esperança, s/n",938869417,casaldegurb@gmail.com,16:00 - 19:00,Sí,Sí,Sí,Sí,Sí,,POINT (2.24386005 41.94011202)
Osona,Vic,082981,Sí,41.92673874,2.25374517,Parc densament arbrat,Parc Jaume Balmes,Parc Jaume Balmes,938862100,NA,Indefinit,Sí,Sí,Sí,No,Sí,,POINT (2.25374517 41.92673874)
Vallès Occidental,Sabadell,08205,Sí,41.5383422,2.0987139,Equipament cívic,Casal Cívic i Comunitari Sabadell - Gràcia,"C. de la Reina Elionor, 110",937105770,cc.sabadellgracia@gencat.cat,dl. a dv. 09:00 - 21:00 | ds. 10:00 - 21:00,Sí,Sí,Sí,Sí,Sí,150,POINT (2.0987139 41.5383422)
Alt Empordà,Lladó,170887,Sí,42.24793446,2.81389114,Espai cultural,Teatre Sindicat De Lladó,"Pl. Major, 2",972565101,ajuntament@llado.cat,12:00 - 18:00,Sí,Sí,Sí,Sí,Sí,160,POINT (2.81389114 42.24793446)
Baix Ebre,Deltebre,439018,Sí,40.72130681,0.69973254,Parc densament arbrat,Parc del riu,Parc del Riu,NA,NA,Indefinit,Sí,Sí,Sí,Sí,Sí,,POINT (0.69973254 40.72130681)
Barcelonès,Barcelona,080193,Sí,41.44021934,2.17338365,Parc densament arbrat,Parc Guineueta,"Pl. de la República, 9",NA,NA,Indefinit,Sí,Sí,Sí,No,Sí,,POINT (2.17338365 41.44021934)
Garrigues,"Pobla de Cérvoles, la",251692,Sí,41.3646193,0.9172025,Piscina,Piscina municipal,"C. Calvari, s/n",973175152,ajuntament@poblacervoles.cat,11:00 - 19:00,No,Sí,Sí,Sí,Sí,100,POINT (0.9172025 41.3646193)
Maresme,"Masnou, el",081189,Sí,41.47873777,2.30359728,Parc densament arbrat,Parc del Llac,"Ptge. Bellresguard, s/n",NA,NA,Indefinit,Sí,Sí,Sí,No,Sí,,POINT (2.30359728 41.47873777)
Barcelonès,Barcelona,080193,Sí,41.43684455,2.17122962,Biblioteca,Biblioteca Nou barris,"Pl. Major de Nou Barris, 2",NA,b.barcelona.nb@diba.cat,"dt., dj. i dv. 09:30 - 20:30 | dl. i dc. 09:30 - 13:30 i 15:30 - 20:30 | Sala d'estudi: dl. a dj. 20:30 - 00:00 | ds. 10:00 - 14:00",Sí,Sí,No,Sí,Sí,,POINT (2.17122962 41.43684455)
Vallès Oriental,Montseny,081379,No,,,NA,NA,NA,NA,NA,NA,NA,NA,NA,NA,NA,,
Barcelonès,Barcelona,080193,Sí,41.41177093,2.19309782,Equipament cívic,Casal de gent gran Joan Casanelles,"C. Concili de Trento, 35",NA,casalgg.joancasanelles@bcn.cat,Juliol i Setembre: dl. a dv. 09:30 - 13:30 i 16:00 - 20:00 || Agost: Tancat,Sí,Sí,No,Sí,Sí,,POINT (2.19309782 41.41177093)
Segrià,Puigverd de Lleida,251826,Sí,41.54333226,0.733484,Equipament cívic,Llar de jubilats Sant Jordi,"Pl. Major, 10",NA,NA,11:00 - 13:00 i 17:00 - 20:00,Sí,Sí,Sí,Sí,Sí,50,POINT (0.733484 41.54333226)
Osona,Muntanyola,081290,Sí,41.87216381,2.18303437,Piscina,Piscina municipal,"C. Serrarica, s/n",938136151,muntanyola@muntanyola.cat,dl. a dg. 11:00 - 14:00 i 16:00 - 20:00 || Indefinit del 15/06 al 31/08,No,Sí,Sí,Sí,Sí,,POINT (2.18303437 41.87216381)
Baix Camp,Reus,43204,Sí,41.1475638,1.1173147,Equipament cívic,Casal Cívic i Comunitari Reus - Sant Josep Obrer,"C. Mas del Pellicer, bloc 55 (Sant Josep Obrer)",977757991,cc.reus@gencat.cat,dl. a dv. 09:00 - 14:00 i 15:00 - 21:00,Sí,Sí,Sí,Sí,Sí,36,POINT (1.1173147 41.1475638)
Barcelonès,Barcelona,080193,Sí,41.36110862,2.13544595,Altres,Punt d'Activitat de Creu Roja a Sants-Montjuïc,"C. Francesc Boix Campo, 6",NA,NA,Juliol i Setembre: dl. a dv. 10:00 - 14:00 i 15:30 - 18:30 || Agost: dl. a dv. 08:00 - 14:00,Sí,Sí,Sí,Sí,Sí,,POINT (2.13544595 41.36110862)
Alt Camp,Alió,430108,Sí,41.29373433,1.30561406,Equipament cívic,Local social,"C. Germà Saperas, 15",977601926,aj.alio@altanet.org,Indefinit,Sí,Sí,Sí,Sí,Sí,100,POINT (1.30561406 41.29373433)
Segrià,Lleida,251207,Sí,41.61971016,0.62226939,Altres,Centre sènior de Bonaire,"C. Bonaire, 37",973246498,NA,16:00 - 20:00,Sí,Sí,Sí,Sí,Sí,,POINT (0.62226939 41.61971016)
Osona,Roda de Ter,081831,Sí,41.98145337,2.30917258,Biblioteca,Biblioteca Bac de roda,"C. Bac de roda, 1 bis",938540077,b.rodadeter.br@diba.cat,"Fins 23/06: Matins: dt., dj. i ds. 10:00 - 13:30 | Tardes: dll. a dv. 15:30 - 20:00 || 25/06 a 15/09: Matins: dt., dj. i dv. 10:00 - 13:30 | Tardes: dll. a dj. 15:30 - 20:00 || Tancat per vacances del 12 al 25 d’agost",Sí,Sí,Sí,Sí,Sí,40,POINT (2.30917258 41.98145337)
Garrigues,"Soleràs, el",252069,Sí,41.41408297,0.68286915,Sala polivalent,Sala polivalent de l'ajuntament,"Ctra. de Bellpuig, 23",973133232,ajuntament@soleras.ddl.net,Indefinit,Sí,Sí,Sí,Sí,Sí,250,POINT (0.68286915 41.41408297)
Vallès Oriental,Granollers,08402,Sí,41.6067968,2.2894579,Equipament cívic,Casal Cívic i Comunitari Granollers - Font verda,"Pg. de la Muntanya, 23",938795377,cc.granollersfontverda@gencat.cat,dl. a dv. 09:00 - 14:00 i 15:00 - 21:00 | ds. 10:00 - 13:30 i 15:00 - 21:00,Sí,Sí,Sí,Sí,Sí,50,POINT (2.2894579 41.6067968)
Barcelonès,Barcelona,080193,Sí,41.40716971,2.15537559,Espai cultural,Lluïsos de Gràcia,"Pl. del Nord, 7-10",NA,NA,Juliol: dl. a dj. 09:00 - 23:45 | dv. 09:00 - 00:45 | ds. 09:00 - 00:45 || Agost: Tancat || Setembre: dl. a dj. 09:00 - 23:45 | dv. 09:00 - 00:45 | ds. 09:00 - 00:45 | dg. 09:00 - 21:30,Sí,Sí,Sí,Sí,Sí,,POINT (2.15537559 41.40716971)
Baix Ebre,Tortosa,431554,Sí,40.81109518,0.52079188,Altres,Ajuntament de Tortosa,"Pl. Espanya, s/n",977585800,aj.tortosa@tortosa.cat,dl. a dv. 07:30 - 21:00,Sí,Sí,Sí,Sí,Sí,,POINT (0.52079188 40.81109518)
Maresme,Canet de Mar,080403,Sí,41.58907045,2.58126852,Espai cultural,Casa Museu Lluís Domènech i Montaner,"Ra. Gavarra, 2",937954615,NA,"dt., dc., dj. i dg. 10:00 - 14:00 | dv. i ds. 10:00 - 14:00 i 16:00 - 19:00",Sí,Sí,Sí,Sí,Sí,25,POINT (2.58126852 41.58907045)
Garrotxa,Olot,171143,Sí,42.18213526,2.48935825,Biblioteca,Biblioteca municipal,"C. Pati, 2",972261148,NA,dl. a dv. 09:30 - 13:30 i 16:00 - 20:30,Sí,Sí,Sí,Sí,Sí,,POINT (2.48935825 42.18213526)
Vallès Occidental,Sabadell,081878,Sí,41.56608854,2.08311343,Parc densament arbrat,Parc Torrent de la Romeua,"Torrent de la Romeua, 19, 08207 Sabadell, Barcelona",NA,NA,Indefinit,Sí,Sí,No,No,No,,POINT (2.08311343 41.56608854)
Maresme,Argentona,080095,Sí,41.55558797,2.40026238,Altres,Ajuntamnet Argentona - oficines OAC,"C. Gran, 59",937974900,oac@argentona.cat,08:30 - 14:00,Sí,Sí,No,Sí,Sí,8,POINT (2.40026238 41.55558797)
Barcelonès,Barcelona,08016,Sí,41.4418858,2.1759321,Equipament cívic,Casal Cívic i Comunitari Barcelona - Prosperitat,"C. de Pablo Iglesias, 8",933502904,barcelonaprosperitat.casal@gencat.cat,dl. a dv. 09:00 - 21:00 | ds. 10:00 - 15:00 | dg. 15:00 - 21:00,Sí,Sí,Sí,Sí,Sí,120,POINT (2.1759321 41.4418858)
Barcelonès,"Hospitalet de Llobregat, l'",081017,Sí,41.35446712,2.11241745,Equipament cívic,Casal de la gent gran Bellvitge,"Pg. Bellvitge, 12",933367058,cermita.lh@gmail.com,10:00 - 13:00 i 16:00 - 20:00,Sí,Sí,Sí,Sí,Sí,,POINT (2.11241745 41.35446712)
Barcelonès,Barcelona,080193,Sí,41.43818368,2.20173146,Piscina,Piscina del Centre Esportiu Municipal Bon Pastor,"C. Costa Daurada, 12",NA,aebonpastor@hotmail.com,Juliol i Setembre: dl. a dv. 07:00 - 22:00 | ds. 10:00 - 18:00 | dg. 10:00 - 18:00 || Agost: dl. a dv. 10:00 - 18:00 | ds. 10:00 - 18:00 | dg. 10:00 - 18:00,No,Sí,NA,NA,NA,,POINT (2.20173146 41.43818368)
Pla d'Urgell,Linyola,251229,Sí,41.71080996,0.90291821,Biblioteca,Biblioteca Salvador Espriu,Pl. Pau Casals,973575640,info@ajuntamentdelinyola.cat,16:30 - 21:00,Sí,Sí,Sí,Sí,Sí,100,POINT (0.90291821 41.71080996)
Baix Camp,Reus,431233,Sí,41.15855329,1.10196642,Espai cultural,Centre d'Art Cal Massó,"C. de Pròsper de Bofarull, 7, 43202 Reus, Tarragona",977010650,NA,dc. a dv. 18:00 - 22:00 | ds. 12:00 - 15:00 i 18:00 - 22:00,Sí,Sí,Sí,Sí,Sí,,POINT (1.10196642 41.15855329)
Barcelonès,Barcelona,080193,Sí,41.42003912,2.13967505,Biblioteca,Biblioteca Vallcarca i els Penitents,Pg. Vall d'Hebron 65-69,NA,NA,"Juliol i Setembre: dt., dj. i dv. 09:30 - 13:30 i 15:30 - 20:00 | dl. i dc. 15:30 - 20:00 || Agost: Tancat",Sí,Sí,No,Sí,Sí,,POINT (2.13967505 41.42003912)
Baix Camp,Vandellòs i l'Hospitalet de l'Infant,431628,Sí,41.01873748,0.85738321,Altres,Antigues Escoles,"C. Arrabal, 2-10",977824037,info@vandellos-hospitalet.cat,Indefinit,Sí,Sí,Sí,Sí,Sí,,POINT (0.85738321 41.01873748)
Baix Ebre,Deltebre,439018,Sí,40.72478676,0.72649401,Poliesportiu,Centre esportiu del Delta,Av. del Canal,977489695,NA,07:00 - 21:30,No,Sí,Sí,Sí,Sí,,POINT (0.72649401 40.72478676)
Segarra,Montoliu de Segarra,251410,Sí,41.605551,1.28223,Sala polivalent,Local social Vilagrasseta (antigues Escoles),"C. de l'esglèsia, s/n",NA,ajuntament@montoliusegarra.cat,09:00 - 14:00 i 16:00 - 19:00,Sí,Sí,Sí,Sí,Sí,40,POINT (1.28223 41.605551)
Barcelonès,Barcelona,080193,Sí,41.38065418,2.14599409,Parc densament arbrat,Jardins de Safo,"Llança, 48",NA,NA,dl. a dv. 10:00 - 22:00 | ds. 10:00 - 22:00 | dg. 10:00 - 22:00,Sí,NA,Sí,No,Sí,,POINT (2.14599409 41.38065418)
Gironès,Girona,170792,Sí,41.97156559,2.80711284,Equipament cívic,Espai cívic Can Gibert del Pla,"C. Taga, 4, 17006 Girona",972230652,CentreCivicSantaEugenia@ajgirona.cat,Indefinit || Agost tancat,Sí,Sí,No,Sí,Sí,4,POINT (2.80711284 41.97156559)
Barcelonès,Barcelona,080193,Sí,41.41912569,2.1462902,Parc densament arbrat,Parc Creueta del Coll,"Pg. de la Mare de Déu del Coll, 77",NA,NA,dl. a dv. 10:00 - 22:30 | ds. 10:00 - 22:30 | dg. 10:00 - 22:30,Sí,Sí,Sí,Sí,Sí,,POINT (2.1462902 41.41912569)
Conca de Barberà,Santa Coloma de Queralt,431397,Sí,41.53286644,1.38716072,Piscina,Piscina municipal,Pg. de la Muralla,NA,NA,11:00 - 20:00,No,Sí,No,Sí,Sí,,POINT (1.38716072 41.53286644)
Pla d'Urgell,Castellnou de Seana,250680,Sí,41.64825099,0.97117649,Altres,Casal de gent gran,"Pl. Major, 1",973320705,ajuntament@castellnouseana.ddl.net,08:00 - 21:00,Sí,No,Sí,Sí,Sí,50,POINT (0.97117649 41.64825099)
Anoia,Rubió,081859,Sí,41.62581395,1.55095337,Sala polivalent,Sala local social del Pla de Rubió,"C. Escoles, s/n",938078181,rubio@rubio.cat,dt. a dg. 08:00 - 15:00,Sí,Sí,No,Sí,Sí,50,POINT (1.55095337 41.62581395)
Pla de l'Estany,Banyoles,170157,Sí,42.18206045,2.79145058,Equipament cívic,Casal de barri de Can Puig,"C. Figueres, 47",NA,NA,Indefinit,Sí,Sí,Sí,Sí,Sí,,POINT (2.79145058 42.18206045)
Cerdanya,Isòvol,170849,Sí,42.39850243,1.84085434,Sala polivalent,Local social d'All,"C. Major, s/n, 17539 All",NA,NA,Indefinit,Sí,Sí,Sí,Sí,Sí,200,POINT (1.84085434 42.39850243)
Barcelonès,Barcelona,080193,Sí,41.4248574,2.15735918,Equipament cívic,Casal de barri La Barraca del Carmel,C. Llobregós 107-113,NA,info@casalcarmel.cat,Juliol: dl. a dv. 10:00 - 14:00 || Agost: Tancat || Setembre: dl. a dv. 10:00 - 14:00 i 16:00 - 21:00 | ds. Indefinit,Sí,Sí,No,Sí,Sí,,POINT (2.15735918 41.4248574)
Bages,Avinyó,080121,Sí,41.86566353,1.97431709,Piscina,Piscines municipals,C. Industria,938387684,NA,10:00 - 20:00,No,Sí,No,Sí,Sí,,POINT (1.97431709 41.86566353)
Ripollès,Gombrèn,170806,No,,,NA,NA,NA,NA,NA,NA,NA,NA,NA,NA,NA,,
Baix Llobregat,Esplugues de Llobregat,080771,Sí,41.37621599,2.0969547,Parc densament arbrat,Parc de Can Vidalet,"C. Molí, 104-108",933713350,ajuntament@esplugues.cat,Juny i setembre: 08:00 - 21:00 || Juliol i agost: 08:00 - 22:00,Sí,Sí,Sí,No,Sí,,POINT (2.0969547 41.37621599)
Maresme,Tiana,082824,Sí,41.48171388,2.26847629,Altres,Llar de persones grans,"C. Anselm Clavé, 20",934652945,esplai@llartiana.cat,dl. a dv. 09:30 - 13:00 i 16:00 - 20:00 | ds. de 16:00 - 20:00 || Agost de dl. a  dv. 16:00 - 20:00,Sí,Sí,Sí,Sí,Sí,50,POINT (2.26847629 41.48171388)
Osona,Folgueroles,080832,Sí,41.93945202,2.31291308,Piscina,Piscines municipals de Folgueroles,"C. Sajolida, 1",938122054,folgueroles@folgueroles.cat,9:00 - 20:00,No,Sí,No,Sí,Sí,550,POINT (2.31291308 41.93945202)
Barcelonès,Barcelona,080193,Sí,41.39688923,2.14744725,Equipament cívic,Casal de gent gran Sant Ildefons,"C. de Marià Cubí, 111",NA,info@ggsantildefons.cat,Juliol i Setembre: dl. a dv. 10:00 - 13:00 i 16:00 - 20:00 || Agost: Tancat,Sí,Sí,Sí,Sí,Sí,,POINT (2.14744725 41.39688923)
Alt Empordà,Roses,171523,Sí,42.26371064,3.17657,Biblioteca,Biblioteca Jaume Vicens i Vives,"C. de Girona, 22-30",972150928,biblioteca@roses.cat,Indefinit,Sí,Sí,No,Sí,Sí,,POINT (3.17657 42.26371064)
Barcelonès,Barcelona,080193,Sí,41.38906292,2.14735254,Piscina,Piscina Sant Jordi,"C. París, 114",NA,psj@natacio.cat,Juliol i Agost: dl. a dv. 07:00 - 22:00 | ds. 08:00 - 20:00 | dg. 09:00 - 14:00 || Setembre: Indefinit,No,Sí,NA,NA,NA,,POINT (2.14735254 41.38906292)
Vallès Oriental,Lliçà d'Amunt,081075,Sí,41.59191668,2.20289922,Equipament cívic,Casal de la Gent Gran de Palaudàries,"Ctra. de Palaudàries, 88",390014988,llam.casalgentgran@llicamunt.cat,Indefinit,Sí,Sí,Sí,Sí,Sí,212,POINT (2.20289922 41.59191668)
Vallès Oriental,"Franqueses del Vallès, les",080863,Sí,41.61920035,2.29674694,Equipament cívic,Casal d'avis i centre social de Bellavista,"C. d'Extremadura, 32-38 (interior d'illa)",NA,NA,10:00 - 20:00,Sí,Sí,Sí,Sí,Sí,,POINT (2.29674694 41.61920035)
Bages,Callús,080386,Sí,41.7807,1.78411013,Altres,Parc Callús,"Pg. Anselm Clavé, s/n",NA,NA,Indefinit,Sí,Sí,Sí,No,Sí,,POINT (1.78411013 41.7807)
Vallès Occidental,Barberà del Vallès,082520,Sí,41.51676894,2.12732062,Sala polivalent,Teatre municipal Cooperativa,"Ptge. de la Cooperativa, 5",937297171,barbera@bdv.cat,dt. a dv. 11:30 - 13:00 i 17:00 - 20:00 || Tancat les tres primeres setmanes Agost,Sí,Sí,Sí,Sí,Sí,145,POINT (2.12732062 41.51676894)
Bages,Sant Joan de Vilatorrada,082188,Sí,41.74561526,1.80546108,Altres,Ajuntament,"C. Major, 91-93",NA,NA,09:00 - 14:00,Sí,Sí,Sí,Sí,Sí,,POINT (1.80546108 41.74561526)
Vallès Occidental,Sabadell,081878,Sí,41.54171246,2.0994306,Piscina,Piscina Can Marcet,"C. de Riu-Sec, 54, 08205 Sabadell, Barcelona",937263050,NA,10:00 - 19:30,No,Sí,Sí,Sí,Sí,,POINT (2.0994306 41.54171246)
Bages,Sant Salvador de Guardiola,080983,Sí,41.68686716,1.7816281,Piscina,Piscina municipal,"C. Reina Sofia, s/n",938358025,ssg.ajuntament@diba.cat,11:00 - 20:00,No,Sí,Sí,Sí,Sí,,POINT (1.7816281 41.68686716)
Vallès Occidental,Rubí,081846,Sí,41.50220363,2.0366037,Parc densament arbrat,Plaça d’Andalusia (zona de lledoners),Pl. d’Andalusia (zona de lledoners),NA,NA,Indefinit,Sí,Sí,Sí,No,Sí,,POINT (2.0366037 41.50220363)
Baix Camp,Vandellòs i l'Hospitalet de l'Infant,431628,Sí,41.01878994,0.88660513,Equipament cívic,Les antigues Escoles,C. Nou,676619249,info@vandellos-hospitalet.cat,09:00 - 19:00,Sí,Sí,Sí,Sí,Sí,200,POINT (0.88660513 41.01878994)
Tarragonès,Tarragona,431482,Sí,41.11621591,1.24195558,Altres,Institut municipal d'Educació (IMET),"C. Ramón y Cajal, 70, 43005 Tarragona",977248409,NA,09:00 - 15:00,Sí,Sí,No,Sí,Sí,10,POINT (1.24195558 41.11621591)
Barcelonès,Barcelona,080193,Sí,41.40161553,2.1108141,Poliesportiu,CEM Can Caralleu,"C. Esports, 2-8",NA,cancaralleu@cancaralleu.cat,Juliol i Setembre: dl. a dv. 08:00 - 23:00 | ds. 08:00 - 21:00 | dg. 08:00 - 17:00 || Agost: dl. a dv. 09:00 - 18:00 | ds. 09:00 - 18:00 | dg. 09:00 - 18:00,Sí,Sí,Sí,Sí,Sí,,POINT (2.1108141 41.40161553)
Barcelonès,Barcelona,080193,Sí,41.40277213,2.1148023,Parc densament arbrat,Jardins de Can Sentmenat,"C. Can Caralleu, 6-14",NA,NA,dl. a dv. 10:00 - 22:30 | ds. 10:00 - 22:30 | dg. 10:00 - 22:30,Sí,Sí,NA,Sí,NA,,POINT (2.1148023 41.40277213)
Baix Camp,Reus,431233,Sí,41.16207275,1.09328731,Parc densament arbrat,Parc Mas Carandell,"C. de Terol, 8",NA,NA,Juny-Agost: 08:00 - 22:00 || Setembre: 08:00 - 21:00,Sí,Sí,Sí,No,Sí,,POINT (1.09328731 41.16207275)
Segrià,Montoliu de Lleida,251425,Sí,41.56053481,0.58842222,Altres,Bar Llar del poble de Montoliu de Lleida,C. La Creu,973720291,NA,08:00 - 21:00,No,Sí,No,Sí,Sí,,POINT (0.58842222 41.56053481)
Segrià,Lleida,251207,Sí,41.61727618,0.62250939,Espai cultural,Centre d'Art La Panera,"Pl. de la Panera, 2",973262185,NA,dt. a ds. 10:00 - 14:00 i 17:00 - 19:00 | dg. i festius 11:00 - 14:00,Sí,Sí,No,Sí,No,,POINT (0.62250939 41.61727618)
Maresme,Premià de Dalt,082303,Sí,41.49675994,2.36259179,Equipament cívic,Casal d'avis Santa Anna - tio,"Pl. del mil·lenari, 1",937522632,casalsantaannatio@gmail.com,laborables 09:00 - 13:00 i 16:00 - 20:00,Sí,Sí,Sí,Sí,Sí,,POINT (2.36259179 41.49675994)
Alt Urgell,Oliana,251497,Sí,42.0673848,1.3164511,Piscina,Piscina,"C. de l'Esport, s/n",NA,NA,11:00 - 20:00,No,Sí,Sí,Sí,Sí,,POINT (1.3164511 42.0673848)
Tarragonès,Tarragona,431482,Sí,41.13406753,1.25000366,Parc densament arbrat,Parc de Sant Pere i Sant Pau,"Urb. Pedrol, 13, 43007 Tarragona",NA,NA,Indefinit,Sí,Sí,Sí,Sí,Sí,100,POINT (1.25000366 41.13406753)
Gironès,Girona,170792,Sí,41.97356121,2.81793983,Parc densament arbrat,Parc del Migdia,"C. de Pau Vila i Dinarès, 17003 Girona",972419000,ajuntamentinforma@ajgirona.cat,08:00 - 22:00,Sí,Sí,Sí,No,Sí,,POINT (2.81793983 41.97356121)
Osona,"Masies de Roda, les",081167,Sí,41.99049201,2.30678342,Sala polivalent,Sala polivalent de les Masies de Roda,"Ctra. de Manlleu, s/n",938540027,masiesr@lesmasiesderoda.cat,09:00 - 20:00,Sí,Sí,Sí,Sí,Sí,200,POINT (2.30678342 41.99049201)
Barcelonès,Barcelona,080193,Sí,41.37529885,2.13689742,Equipament cívic,Centre cívic Cotxeres,"C. de Sants, 79",NA,informacio@cotxeresborrell.net,Juliol i Setembre: dl. a dv. 09:00 - 14:30 i 16:30 - 21:30 | ds. 09:00 - 14:30 i 16:00 - 21:30 || Agost: Tancat,Sí,No,No,Sí,Sí,,POINT (2.13689742 41.37529885)
Alt Camp,Cabra del Camp,430363,Sí,41.395593,1.275454,Sala polivalent,Sala 1 d'octubre,"C. Raval de la Creu, 9",977630131,aj.cabra@altanet.org,Indefinit,Sí,Sí,Sí,Sí,Sí,120,POINT (1.275454 41.395593)
Vallès Occidental,Santa Perpètua de Mogoda,082606,Sí,41.5360767,2.18308045,Parc densament arbrat,Parc municipal,"Av. de Santiga, 2, 08130 Santa Perpètua de Mogoda",NA,NA,Indefinit,Sí,Sí,Sí,No,Sí,,POINT (2.18308045 41.5360767)
Barcelonès,Barcelona,080193,Sí,41.42806941,2.14438199,Piscina,Piscina del Centre Esportiu Municipal Olímpics Vall Hebron,"Pg. Vall Hebron, 166-176",NA,NA,Juliol i Agost: dl. a dv. 07:00 - 23:00 | ds. 09:00 - 20:00 | dg. 09:00 - 15:00 || Setembre: Indefinit,No,Sí,NA,NA,NA,,POINT (2.14438199 41.42806941)
Barcelonès,Barcelona,080193,Sí,41.42693164,2.17396631,Equipament cívic,Centre cívic Torre Llobeta,"C. de Santa Fe, 2 bis",NA,info.cctorrellobeta@esport3.org,Juliol i Setembre: dl. a dv. 09:30 - 14:30 i 16:00 - 21:30 | ds. 10:00 - 14:00 i 16:00 - 21:30 || Agost: dl. a dv. 17:00 - 21:30,Sí,Sí,Sí,Sí,Sí,,POINT (2.17396631 41.42693164)
Baix Empordà,Jafre,170852,Sí,42.07518572,3.01153362,Equipament cívic,Local social de Jafre,Zona del Padró,972768001,ajuntament@jafre.cat,Indefinit,Sí,Sí,Sí,Sí,Sí,80,POINT (3.01153362 42.07518572)
Alt Camp,Valls,431613,Sí,41.28431552,1.2477455,Sala polivalent,Vestíbul de l'Ajuntament de Valls,"Pl. del Blat, 1",977636014,equipaments@valls.cat,dl. a dv. 09:00 - 14:00,Sí,Sí,Sí,Sí,Sí,15,POINT (1.2477455 41.28431552)
Selva,Brunyola i Sant Martí Sapresa,170280,No,,,NA,NA,NA,NA,NA,NA,NA,NA,NA,NA,NA,,
Bages,Manresa,081136,Sí,41.7286496,1.83787812,Altres,Associació de veïns Font dels Capellans,"C. Font dels Capellans octogonal 14, local 75",938744306,avvlafont@hotmail.com,Indefinit,Sí,Sí,Sí,Sí,Sí,10,POINT (1.83787812 41.7286496)
Montsià,Freginals,430629,Sí,40.67165396,0.52087754,Sala polivalent,Casal municipal,"C. Mossèn Miquel, 18",977572789,ajuntament@freginals.cat,Indefinit,Sí,Sí,Sí,Sí,Sí,30,POINT (0.52087754 40.67165396)
Barcelonès,Barcelona,08020,Sí,41.4142461,2.1774423,Equipament cívic,Casal Cívic i Comunitari Barcelona - Bac de roda,"C. de Bac de Roda, 190",933081208,barcelonabacderoda.casal@gencat.cat,dl. a dv. 09:00 - 21:00 | ds. 10:00 - 21:00,Sí,Sí,Sí,Sí,Sí,163,POINT (2.1774423 41.4142461)
Tarragonès,Salou,439057,Sí,41.07306655,1.14778466,Parc densament arbrat,Parc de la ciutat,C. Carles Buigas,NA,alcaldia@salou.cat,08:00 - 22:00,Sí,Sí,Sí,Sí,Sí,,POINT (1.14778466 41.07306655)
Osona,Vic,082981,Sí,41.92933925,2.25145694,Parc densament arbrat,Parc Can Forcada,Parc Can Forcada,938862100,NA,Indefinit,Sí,Sí,Sí,No,Sí,,POINT (2.25145694 41.92933925)
Alt Empordà,"Jonquera, la",170865,Sí,42.41266,2.87354,Piscina,Piscina municipal,C. 11 de setembre,NA,NA,10:00 - 20:00,No,Sí,Sí,Sí,Sí,200,POINT (2.87354 42.41266)
Gironès,Sant Gregori,171637,Sí,41.99023881,2.7602864,Equipament cívic,Centre cívic Sant Gregori,"C. Rocacorba, 2",972428666,secretaria@santgregori.cat,09:00 - 12:00 i 15:00 - 19:00,Sí,Sí,Sí,Sí,Sí,60,POINT (2.7602864 41.99023881)
Alt Urgell,"Valls d'Aguilar, les",259062,Sí,42.29411,1.3418168,Altres,Bar de Noves de Segre,"C. Diputat Garriga, 3",973387086,ajuntament@vallsaguilar.ddl.net,dl. a dv. 09:30 - 13:30,Sí,No,Sí,Sí,Sí,10,POINT (1.3418168 42.29411)
Barcelonès,Barcelona,080193,Sí,41.38483109,2.11525883,Biblioteca,Biblioteca de l'Escola Tècnica Superior d'Enginyeria Industrial de Barcelona (UPC),"Av. Diagonal, 647",NA,etseib@upc.edu,Juliol: dl. a dv. 08:30 - 14:00 || Agost: Tancat || Setembre: Del 2-6: dl. a dv. 08:30 - 14:00 | Després: dl. a dv. 08:30 - 20:30,Sí,Sí,Sí,Sí,Sí,,POINT (2.11525883 41.38483109)
Alt Empordà,Viladamat,172174,Sí,42.13258299,3.0743858,Equipament cívic,Centre Cívic De Viladamat,"Pl. de l'1 d'octubre, 1",972788082,ajuntament@viladamat.cat,08:00 - 20:00,Sí,Sí,Sí,Sí,Sí,50,POINT (3.0743858 42.13258299)
Vallès Occidental,Terrassa,082798,Sí,41.55482261,2.02725649,Parc densament arbrat,Jardins de Salvador Allende,"Av. de Les Glòries Catalanes, 131",NA,NA,Indefinit,Sí,Sí,No,No,Sí,,POINT (2.02725649 41.55482261)
Alt Penedès,Torrelavit,082877,Sí,41.44320345,1.7304173,Altres,Centre de dia,"C. de M. Segimon Tomeu, 29, 08775 Torrelavit, Barcelona",938995002,torrelavit@torrelavit.cat,10:00 - 19:00,No,Sí,Sí,Sí,Sí,35,POINT (1.7304173 41.44320345)
Barcelonès,Barcelona,080193,Sí,41.37357901,2.18874231,Piscina,Piscines del Centre Esportiu Municipal de Sant Sebastià,"Pl. del Mar, s/n",932210506,NA,dl. a dv. 06:30 - 22:30 | ds. 07:00 - 22:30 | dg. 08:00 - 20:00,No,Sí,NA,NA,NA,,POINT (2.18874231 41.37357901)
Segrià,Corbins,250788,Sí,41.69001707,0.69509288,Biblioteca,Biblioteca municipal,"Pl. de la Sardana, 3",973191006,biblioteca@corbins.cat,16:00 - 19:00,Sí,Sí,No,Sí,Sí,25,POINT (0.69509288 41.69001707)
Vallès Occidental,Terrassa,08222,Sí,41.5646715,2.0184381,Equipament cívic,Casal Cívic i Comunitari Terrassa - Ca n'anglada,"C. de Sant Tomàs, 2",937318322,cc.terrassacananglada@gencat.cat,dl. a dv. 09:00 - 21:00 | dg. 10:00 - 21:00,Sí,Sí,Sí,Sí,Sí,60,POINT (2.0184381 41.5646715)
Vallès Occidental,Sentmenat,082671,Sí,41.60600318,2.13638228,Biblioteca,Biblioteca Frederic Alfonso i Orfila,"Pg. de l'Església, 6",937152300,b.sentmenat.fao@diba.cat,10:00 - 13:30,Sí,Sí,Sí,Sí,Sí,50,POINT (2.13638228 41.60600318)
Barcelonès,Barcelona,080193,Sí,41.40767556,2.20091275,Parc densament arbrat,Parc del Centre de Poblenou,"Av. Diagonal, 130",NA,NA,dl. a dv. 10:00 - 21:00 | ds. 10:00 - 21:00 | dg. 10:00 - 21:00,Sí,Sí,Sí,No,Sí,,POINT (2.20091275 41.40767556)
Baix Empordà,Verges,172116,Sí,42.06051686,3.04676076,Equipament cívic,Antic Dispensari - Local entitats,"Plta. de l'1 d'octubre, 1",NA,NA,Indefinit,Sí,Sí,Sí,Sí,Sí,40,POINT (3.04676076 42.06051686)
Alt Camp,Valls,431613,Sí,41.28336198,1.24878648,Parc densament arbrat,Plaça de les Escudelles,Pl. de les Escudelles,NA,NA,Indefinit,Sí,Sí,Sí,No,Sí,,POINT (1.24878648 41.28336198)
Baix Camp,Arbolí,430154,Sí,41.2422771,0.9468225,Sala polivalent,Sala de ball,"Av. la Vall, s/n",679936792,aj.arboli@altanet.org,Indefinit,Sí,Sí,Sí,Sí,Sí,250,POINT (0.9468225 41.2422771)
Tarragonès,Salou,439057,Sí,41.07608943,1.13249548,Altres,Plaça Bonet,C. Barcelona,977309200,alcaldia@salou.cat,01:00 - 24:00,Sí,Sí,No,No,Sí,,POINT (1.13249548 41.07608943)
Barcelonès,Barcelona,080193,Sí,41.4132711,2.16541887,Parc densament arbrat,Parc de les Aigües,"Pl. Alfons el Savi, 3",NA,NA,dl. a dv. 10:00 - 21:00 | ds. 10:00 - 21:00 | dg. 10:00 - 21:00,Sí,Sí,Sí,No,Sí,,POINT (2.16541887 41.4132711)
Tarragonès,Tarragona,431482,Sí,41.1267614,1.24015564,Parc densament arbrat,Parc Fitolaca,C. Josep Maria Alomà,NA,NA,Indefinit,Sí,Sí,Sí,No,Sí,50,POINT (1.24015564 41.1267614)
Barcelonès,Badalona,08917,Sí,41.4508006,2.2287126,Equipament cívic,Casal Cívic i Comunitari Badalona - Nova Lloreda,"Av. de Catalunya, s/n",933992715,cc.badalonanovalloreda@gencat.cat,dl. a dv. 09:00 - 21:00 | dg. 10:00 - 21:00,Sí,Sí,Sí,Sí,Sí,200,POINT (2.2287126 41.4508006)
Baix Ebre,"Perelló, el",431042,Sí,40.87648979,0.70965886,Piscina,Piscina municipal,"Av. Pla de la Fira, s/n",977490007,aj.perello@elperello.cat,Juliol i agost: dl. a ds. 12:00 - 19:00,Sí,Sí,No,Sí,Sí,,POINT (0.70965886 40.87648979)
Noguera,Balaguer,250404,Sí,41.78838236,0.80556804,Biblioteca,Biblioteca Margarida de Montferrat,"C. Miracle, 23, 2n pis",973443410,biblioteca@balaguer.cat,dl. 16:00 - 20:30 | dt. a dv. 09:00 - 14:00 | ds. tancat,Sí,Sí,Sí,Sí,Sí,,POINT (0.80556804 41.78838236)
Barcelonès,Barcelona,080193,Sí,41.43591008,2.14286296,Piscina,Piscines del Centre Esportiu Municipal Mundet,"C. Olympe de Gouges, s/n",934282750,NA,Juliol: dl. a dv. 07:00 - 23:00 | ds. 08:00 - 20:00 | dg. 09:00 - 13:30 || Agost: dl. a dv. 09:00 - 20:00 | ds. 10:00 - 14:00 || Setembre: Indefinit,No,Sí,NA,NA,NA,,POINT (2.14286296 41.43591008)
Vallès Oriental,"Ametlla del Vallès, l'",080057,Sí,41.66951086,2.2671855,Piscina,Ca l'Arenys,"C. Ca l'Arenys, s/n",NA,NA,11:00 - 20:00,No,Sí,No,Sí,Sí,200,POINT (2.2671855 41.66951086)
Barcelonès,Barcelona,080193,Sí,41.40972778,2.14129591,Poliesportiu,CEM Putxet,"C. Marmellà, 23",NA,info@putxetsport.cat,Indefinit,Sí,Sí,Sí,Sí,Sí,,POINT (2.14129591 41.40972778)
Barcelonès,Barcelona,080193,Sí,41.40569984,2.17627405,Biblioteca,Biblioteca Sagrada Família - Josep M. Ainaud de Lasarte,"C. de Provença, 480",NA,b.barcelona.sf@diba.cat,"dl., dc. i dj. 09:30 - 13:30 i 15:30 - 20:30 | dt. i dv. 09:30 - 20:30 | ds. 10:00 - 14:00 i 16:00 - 20:00 | dg. 10:00 - 14:00",Sí,NA,NA,NA,NA,,POINT (2.17627405 41.40569984)
Garrotxa,Olot,171143,Sí,42.16971576,2.47737692,Parc densament arbrat,Parc de Pequín (davant supermercat Carrefour),"Av. de Santa Coloma, 74",NA,NA,Indefinit,Sí,Sí,Sí,No,Sí,,POINT (2.47737692 42.16971576)
Barcelonès,Barcelona,080193,Sí,41.45009112,2.18935358,Equipament cívic,Casal de gent gran Trinitat Vella,"Ctra. de Ribes, 85",NA,infocggtrinitatvella@bcn.cat,Juliol i Setembre: dl. a dv. 09:30 - 13:00 i 16:00 - 19:30 | ds. i dg. 10:00 - 13:00 i 16:00 - 19:30 || Agost: dl. a dv. 16:00 - 20:00,Sí,Sí,Sí,Sí,Sí,,POINT (2.18935358 41.45009112)
Terra Alta,Gandesa,430640,Sí,41.05858967,0.4398056,Piscina,Piscina municipal de Gandesa,"Av. Joan Perucho, 1",977420007,ajuntament@gandesa.cat,11:00 - 19:00,No,Sí,No,Sí,Sí,,POINT (0.4398056 41.05858967)
Baix Llobregat,Vallirana,082956,Sí,41.38579776,1.93324476,Equipament cívic,Casal cívic i comunitari Vallirana,"Av. l'Esport, 2, 08759 Vallirana, Barcelona",936830778,NA,dl. a dv. 09:00 - 21:00 | ds. 10:00 - 14:00 i 15:00 - 21:00,Sí,Sí,Sí,Sí,Sí,,POINT (1.93324476 41.38579776)
Vallès Occidental,Terrassa,08225,Sí,41.569095,1.9807426,Equipament cívic,Casal Cívic i Comunitari Terrassa - Can boada,"C. de Príncep de Viana, s/n",937882030,cc.terrassacanboada@gencat.cat,dl. a dv. 09:00 - 21:00 | dg. 10:00 - 21:00,Sí,Sí,Sí,Sí,Sí,140,POINT (1.9807426 41.569095)
Vallès Oriental,Gualba,080977,Sí,41.73410504,2.50162557,Parc densament arbrat,Parc de la Riera de Gualba,Darrera escola CEIP Aqua Alba,938487027,gualba@gualba.cat,Indefinit,Sí,No,No,No,Sí,50,POINT (2.50162557 41.73410504)
Baix Llobregat,Viladecans,083015,Sí,41.32164616,2.02084291,Parc densament arbrat,Parc de la Torre Roja,Av. de la Torre Roja,NA,NA,Indefinit,Sí,Sí,Sí,No,Sí,,POINT (2.02084291 41.32164616)
Baix Penedès,Banyeres del Penedès,430206,Sí,41.27648383,1.5824701,Piscina,Piscina pública municipal de Banyeres del Penedès,"C. Dos Hermanas, 2",977671350,ajuntament@banyeresdelpenedes.cat,11:00 - 20:00,No,Sí,No,Sí,Sí,250,POINT (1.5824701 41.27648383)
Baix Llobregat,Pallejà,081574,Sí,41.42176043,1.99673395,Biblioteca,Biblioteca municipal de Pallejà,"Av. Prat de la Riba, 10",936631887,b.palleja@diba.cat,dl. i dc. 16:00 - 20:00 | dt. i dj. 09:30 - 14:00 i 16:00 - 20:00 | dv. 09:30 - 14:00,Sí,Sí,Sí,Sí,Sí,420,POINT (1.99673395 41.42176043)
Garrotxa,Olot,171143,Sí,42.17156132,2.47990946,Parc densament arbrat,Parc Nou,"Av. de Santa Coloma, 43",NA,NA,08:00 - 20:00,Sí,Sí,Sí,Sí,Sí,,POINT (2.47990946 42.17156132)
Garraf,Sitges,082704,Sí,41.2353224,1.81223368,Biblioteca,Biblioteca Santiago Rusiñol,"Pl. de l'ajuntament, 13, 08870 Sitges, Barcelona",NA,NA,"dl. i dt. 15:30 - 20:00 | dc., dj. i dv. 10:00 - 14:00 i 15:30 - 20:00 | ds. 10:00 - 14:00 i dg. tancat || Tancat per vacances els dies 16 i 23 d'agost",Sí,Sí,Sí,Sí,Sí,,POINT (1.81223368 41.2353224)
Vallès Occidental,Rubí,081846,Sí,41.48356526,2.03096964,Parc densament arbrat,Plaça dels Nens,Pl. dels Nens,NA,NA,Indefinit,Sí,Sí,Sí,No,Sí,,POINT (2.03096964 41.48356526)
Bages,Balsareny,080180,Sí,41.86313179,1.87476454,Espai cultural,Sala El Sindicat,"C. de Ponent, 7, 08660 Balsareny, Barcelona",NA,balsareny@balsareny.cat,Indefinit,Sí,Sí,No,Sí,Sí,326,POINT (1.87476454 41.86313179)
Selva,Caldes de Malavella,170335,Sí,41.83589524,2.8090881,Espai cultural,Teatre-Casino municipal,"C. de Mossèn Cinto Verdaguer, 11",972470005,NA,"18:00 - 20:00 || Excepte 3,4 i 5 d'agost: 12:00 - 14:00",Sí,Sí,Sí,Sí,Sí,,POINT (2.8090881 41.83589524)
Barcelonès,Barcelona,080193,Sí,41.41028283,2.18595861,Altres,Associació de veïnes i veïns del Clot-Camp de l'Arpa,"C. Sibelius, 3",NA,avvclotcampdelarpa@gmail.com,Juliol: dt. i dc. 10:00 - 20:00 | dj. 10:00 - 12:00 || Agost: Tancat || Setembre: dt. i dc. 18:00 - 20:00 | dj. 10:00 - 12:00,Sí,Sí,No,Sí,Sí,,POINT (2.18595861 41.41028283)
Vallès Occidental,Terrassa,082798,Sí,41.53546271,2.03815162,Parc densament arbrat,Parc Serra Galliners,Pl. de Joan Santamaria,NA,NA,Indefinit,Sí,Sí,Sí,No,Sí,,POINT (2.03815162 41.53546271)
